locality,lon,lat,Age,region,Country
134 (Alboran Sea),7.304167,39.195,Zanclean,Western Mediterranean,Spain
371 (Balearic basin),5.254167,37.931333,Zanclean,Western Mediterranean,offshore
372 (Balearic basin),4.7965,41.031,pre-evaporitic Messinian,Western Mediterranean,offshore
374 (Ionian Basin),18.196333,35.847833,Zanclean,Eastern Mediterranean,offshore
375 (Antalya Basin),30.759667,34.762333,Zanclean,Eastern Mediterranean,offshore
375 (Levantine Sea),30.759667,34.762333,Tortonian,Eastern Mediterranean,Cyprus
376 (Antalya Basin),31.8075,34.872,Zanclean,Eastern Mediterranean,offshore
376 (Florence Rise),31.8075,34.872,Zanclean,Eastern Mediterranean,Cyprus
378 (Aegean Sea),25.116167,35.9445,Zanclean,Eastern Mediterranean,offshore
652A (Tyrrhenian Sea),13.052778,40.020278,Zanclean,Western Mediterranean,Italy
653A (Tyrrhenian Sea),10.9775,40.012778,Zanclean,Western Mediterranean,offshore
654A (Tyrrhenian Sea),10.612222,40.434444,Zanclean,Western Mediterranean,offshore
966 hole D,32.8,34.26,Zanclean,Eastern Mediterranean,offshore
967 (Eratosthenes Sea Mount),32.716667,34.066667,Zanclean,Eastern Mediterranean,Cyprus
969 (Mediterranean Ridge),24.770833,33.888333,Zanclean,Eastern Mediterranean,offshore
969B (East Med.),24.882967,33.84115,Zanclean,Eastern Mediterranean,offshore
974B (Tyrrhenian Sea),12.142,40.356,Zanclean,Western Mediterranean,offshore
975B (Thyrrenian Sea),4.51,38.896667,Zanclean,Western Mediterranean,France
976B (Alboran Sea),4.312717,36.205217,pre-evaporitic Messinian,Western Mediterranean,offshore
976E (Balearic Sea),4.3124,36.205383,Zanclean,Western Mediterranean,offshore
977 (Alboran Sea),1.955317,36.031783,Zanclean,Western Mediterranean,offshore
978A (Alboran Sea),2.057067,36.231117,pre-evaporitic Messinian,Western Mediterranean,offshore
Abbeveratoio (Sicily),13.98940409,37.68900936,Zanclean,Eastern Mediterranean,Italy
Adana,35.330828,36.991419,Tortonian,Eastern Mediterranean,Turkey
Adana 1,35.238056,37.074167,pre-evaporitic Messinian,Eastern Mediterranean,Turkey
Adraktia (Crete),25.036169,35.149994,Tortonian,Eastern Mediterranean,Greece
Aegina,23.246889,37.807967,Tortonian,Eastern Mediterranean,Greece
Afrata,23.767589,35.573731,Tortonian,Eastern Mediterranean,Greece
Agia Triada (Messinia),21.937358,36.809303,Zanclean,Eastern Mediterranean,Greece
Agioi Anargyroi_Ai Lias (Crete),25.356669,35.233478,Tortonian,Eastern Mediterranean,Greece
Agios Ioannis (Gavdos),24.084478,34.867747,Tortonian,Eastern Mediterranean,Greece
Agios Kosmas,21.25019904,40.15217888,Tortonian,Eastern Mediterranean,Greece
Agios Myron (Crete),25.0273056,35.2328889,pre-evaporitic Messinian,Eastern Mediterranean,Greece
Agios Sostis (Zakynthos),20.861911,37.714019,Tortonian,Eastern Mediterranean,Greece
Agios Stefanos (Corfu),19.641683,39.753958,Zanclean,Eastern Mediterranean,Greece
Agios Tychon (Khalassa subbasin),33.142564,34.724272,Tortonian,Eastern Mediterranean,Greece
Agios Vlassis (Crete),25.132472,35.255042,Zanclean,Eastern Mediterranean,Greece
Agua Amarga Basin (Almeria),1.934261,36.938247,pre-evaporitic Messinian,Western Mediterranean,Spain
Ahermoumou_El Menzel_Arham Amellal,4.414689,33.820661,pre-evaporitic Messinian,Western Mediterranean,Morocco
Ain Bou M'Saad (Taza_Guercif Basin),3.291667,34.181389,Tortonian,Western Mediterranean,Morocco
Ain ed Dehane (Lower Chelif Basin),6.590836,36.335453,pre-evaporitic Messinian,Western Mediterranean,Algeria
Ain Lorna 1 (Sais Basin),-4.958074,33.934832,Tortonian,Western Mediterranean,Morocco
Ain Lorna 2 (Sais Basin),-4.958074,33.934832,Tortonian,Western Mediterranean,Morocco
Ain Temouchent,1.139281,35.299269,pre-evaporitic Messinian,Western Mediterranean,Algeria
Ain Zitoun (Beni Ouarsous),7.015742,35.712992,pre-evaporitic Messinian,Western Mediterranean,Algeria
Ain Zohra,3.523092,34.681908,Tortonian,Western Mediterranean,Morocco
Ait Amar (Melilla Basin),-3.021431097,35.20219821,pre-evaporitic Messinian,Western Mediterranean,Morocco
Ait Hossein (Segangane Basin),-3.00771109,35.15065366,pre-evaporitic Messinian,Western Mediterranean,Morocco
Aksu,30.766639,37.088986,pre-evaporitic Messinian,Eastern Mediterranean,Turkey
Aktepe (Hatay Graben),36.08597333,36.20008247,Zanclean,Eastern Mediterranean,Turkey
Al Khmus,14.2679,32.65095,pre-evaporitic Messinian,Eastern Mediterranean,Libya
Alba (Piedmont),8.035692,44.700914,Zanclean,Po Plain-Northern Adriatic,Italy
Albenga (Liguria),8.196731,44.044458,Tortonian,Western Mediterranean,Italy
Alcala de Guadara (Sevilla),5.859722,37.339711,Zanclean,Western Mediterranean,Spain
Algeria,3.062958,36.621428,pre-evaporitic Messinian,Western Mediterranean,Algeria
Algiers,3.062958,36.621431,Zanclean,Western Mediterranean,Algeria
Alicante Basin,0.566917,38.367664,pre-evaporitic Messinian,Western Mediterranean,Spain
Almeria,2.483044,36.841817,pre-evaporitic Messinian,Western Mediterranean,Spain
Almiri (Crete),24.333333,35.166667,Tortonian,Eastern Mediterranean,Greece
Alt Emporda (Catalonia),3.034389,42.342333,Zanclean,Western Mediterranean,Spain
Altavilla (Sicily),13.538628,38.038708,Zanclean,Eastern Mediterranean,Italy
Amekrane (Melillia Basin),2.971922,35.271508,pre-evaporitic Messinian,Western Mediterranean,Morocco
Andalousia,4.727753,37.544272,pre-evaporitic Messinian,Western Mediterranean,Spain
Andalousia G1 (Alboran Sea),4.274919,36.778161,pre-evaporitic Messinian,Western Mediterranean,Spain
Ano Asites (Kavrochori),25.002528,35.193522,pre-evaporitic Messinian,Eastern Mediterranean,Greece
Ano Moulia (Crete),24.995631,35.113122,pre-evaporitic Messinian,Eastern Mediterranean,Greece
Antakia,36.191903,36.190361,pre-evaporitic Messinian,Eastern Mediterranean,Turkey
Aphrodite_2 core (Levant Basin),34.008933,36.299703,pre-evaporitic Messinian,Eastern Mediterranean,offshore
Apomarma (Crete),24.952375,35.113444,Tortonian,Eastern Mediterranean,Greece
Apostoli (Crete),25.299619,35.219761,Tortonian,Eastern Mediterranean,Greece
Apricena (Gargano_Apulia),15.462397,41.788225,Zanclean,Eastern Mediterranean,Italy
Aquas Blancas Valley (Granada Basin),3.489583,37.179786,Tortonian,Western Mediterranean,Spain
Arapali (T191 borehole),35.06241667,36.95510651,Zanclean,Eastern Mediterranean,Turkey
Arbaa de Taourirt,3.832453,34.931758,pre-evaporitic Messinian,Western Mediterranean,Morocco
Arbal,4.780867,36.562975,Tortonian,Western Mediterranean,Algeria
Arcille (Tuscany),11.285036,42.786717,Zanclean,Western Mediterranean,Italy
Arcos de la Frontera (Andalousia),5.811653,36.756006,pre-evaporitic Messinian,Western Mediterranean,Spain
Arenaria di Ponsano,10.984853,43.361506,Tortonian,Western Mediterranean,Italy
Arham Amellal,4.335531,36.335033,pre-evaporitic Messinian,Western Mediterranean,Morocco
Arignano (Piedmont),7.90250312,45.03702213,Zanclean,Po Plain-Northern Adriatic,Italy
Arkalies (Leukochori),23.76670958,35.23440853,Tortonian,Eastern Mediterranean,Greece
Arnulfi (Piedmont),7.896667,44.625,pre-evaporitic Messinian,Po Plain-Northern Adriatic,Italy
Asari (Crete),25.8668464,35.11810176,Tortonian,Eastern Mediterranean,Greece
Ashtart 1 well (Gulf of Gabes),10.80075619,34.20867176,pre-evaporitic Messinian,Eastern Mediterranean,Tunisia
Asimio (Crete),25.09336967,35.04416468,Tortonian,Eastern Mediterranean,Greece
Asteri (Crete),24.59703042,35.3683263,Zanclean,Eastern Mediterranean,Greece
Asti,8.214987299,44.90057843,Zanclean,Po Plain-Northern Adriatic,Italy
Auribeau (Var),5.467766607,43.83665101,Zanclean,Western Mediterranean,France
Avadan,35.09801913,37.03767288,Zanclean,Eastern Mediterranean,Turkey
Avadan 1,35.1001389,37.0308056,Zanclean,Eastern Mediterranean,Turkey
Azla (Tetouan Basin),-5.250843732,35.54482512,Zanclean,Western Mediterranean,Morocco
Azrou Zazirhine,-5.231834327,33.43479451,Tortonian,Western Mediterranean,Morocco
Bab Stout (Guercif Basin),-4.309972418,34.41030377,Tortonian,Western Mediterranean,Morocco
Babatorum (Hatay Graben),36.2992897,36.0813694,Zanclean,Eastern Mediterranean,Turkey
Bacedasco,9.906486094,44.84424314,Zanclean,Po Plain-Northern Adriatic,Italy
Baeyayla,32.68425004,36.75470398,Tortonian,Eastern Mediterranean,Turkey
Bagnasco (Sabbie d'Asti_Piedmont),8.026373561,44.99869456,Zanclean,Po Plain-Northern Adriatic,Italy
Baix Llobregat (Catalonia),1.963879534,41.41016475,Zanclean,Western Mediterranean,Spain
Baiz Ebro (Catalonia),0.568970716,40.83720202,Zanclean,Western Mediterranean,Spain
Bajo Segura Basin,-0.828885761,38.06009105,Tortonian,Western Mediterranean,Spain
Balearic Islands,2.734551124,39.35944575,pre-evaporitic Messinian,Western Mediterranean,Spain
Balza di Rocca Limata (Sicily),13.9352036,37.1069445,Tortonian,Eastern Mediterranean,Italy
Bandinelli (Siena),11.32048323,43.33882749,Zanclean,Western Mediterranean,Italy
Banengo (Piedmont),8.064669694,45.07085312,pre-evaporitic Messinian,Po Plain-Northern Adriatic,Italy
Banos,-3.795528329,38.3000293,Tortonian,Western Mediterranean,Spain
Barbossi (Var),6.634796312,43.45790381,Zanclean,Western Mediterranean,France
Barcelona,2.16855852,41.38731917,Zanclean,Western Mediterranean,Spain
Bardaris (Gavdos),24.1,34.85,Tortonian,Eastern Mediterranean,Greece
Barinas South (Murcia),-1.058081668,38.27312535,Tortonian,Western Mediterranean,Spain
Baselice,14.97285149,41.39266294,Tortonian,Eastern Mediterranean,Italy
Bas-Leyssin (Chambery_Isere_Rhone),5.868746796,45.64428116,Tortonian,Western Mediterranean,France
Basse-Tafna,-1.436366065,35.19402817,pre-evaporitic Messinian,Western Mediterranean,Algeria
Bassin de Cocuron (Rhone delta),5.438763583,43.77422657,Tortonian,Western Mediterranean,France
Belangero (Sabbie d'Asti_Piedmont),8.197945652,44.84953976,Tortonian,Po Plain-Northern Adriatic,Italy
Benastare (Calabria),16.13948243,38.18364797,Tortonian,Eastern Mediterranean,Italy
Beni Bou Yakoub (Boudinar Basin),-3.66744295,35.1322593,pre-evaporitic Messinian,Western Mediterranean,Morocco
Beni Ouarsous,-1.556971407,35.08031737,pre-evaporitic Messinian,Western Mediterranean,Algeria
Beni Saf,-1.377041074,35.28998968,pre-evaporitic Messinian,Western Mediterranean,Algeria
Benmoussa,-5.001792,33.983867,Tortonian,Western Mediterranean,France
Berghut (Kert Basin),-3.454804,34.962277,pre-evaporitic Messinian,Western Mediterranean,Morocco
Biglini (Cuneo_Piedmont),7.980481063,44.7045184,pre-evaporitic Messinian,Po Plain-Northern Adriatic,Italy
Bir Tam Tam (South Fes),-4.644538148,33.9812537,pre-evaporitic Messinian,Western Mediterranean,Morocco
Bizcornil (Malaga),-5.088156905,36.4566692,Zanclean,Western Mediterranean,Spain
Bled es Safa (Tafna Basin),-1.446342495,35.1943451,pre-evaporitic Messinian,Western Mediterranean,Algeria
Bled Medroum (Tlemcen),-1.31620947,34.8825957,pre-evaporitic Messinian,Western Mediterranean,Algeria
Bled Sidi Bou Knadil (Lower Chelif Basin),0.165516,36.026508,pre-evaporitic Messinian,Western Mediterranean,Algeria
Bo (Gavdos),24.08482182,34.84636588,Tortonian,Eastern Mediterranean,Greece
Bocca d'Asino (South Tortona),8.867995,44.880885,Tortonian,Po Plain-Northern Adriatic,Italy
Bologna,11.35041512,44.49182978,Tortonian,Po Plain-Northern Adriatic,Italy
Bonaria (Cagliari_Sardinia),9.122995397,39.20992654,Tortonian,Western Mediterranean,Italy
Bordighera (Liguria),7.672216718,43.78071006,Zanclean,Western Mediterranean,Italy
Borelli (Moncucco Torinese_Piedmont),7.938559158,45.06427547,pre-evaporitic Messinian,Po Plain-Northern Adriatic,Italy
Borzoli (Genova),8.886630484,44.4355256,Zanclean,Western Mediterranean,Italy
Botro Rosso (Monti Livornesi_Tuscany),10.4164434,43.52096955,pre-evaporitic Messinian,Western Mediterranean,Italy
Bou Djebaa (Ain Oumata),-0.600000035,35.33343752,pre-evaporitic Messinian,Western Mediterranean,Algeria
Bou Meriem (Tazouta_South Fes),-4.605512721,33.71666589,pre-evaporitic Messinian,Western Mediterranean,Morocco
Bou Zadjar (Western Plateau),-1.142907547,35.58192387,pre-evaporitic Messinian,Western Mediterranean,Algeria
Boudinar Basin,-3.629329517,35.1524405,pre-evaporitic Messinian,Western Mediterranean,Morocco
Bougaz-1 well (NE Nile delta),31.85,32.8,Zanclean,Eastern Mediterranean,Egypt
Boughioiul (South Fes),2.848344401,35.70424708,pre-evaporitic Messinian,Western Mediterranean,Morocco
Bouhamza (Segangane Basin),4.690734052,36.44682269,pre-evaporitic Messinian,Western Mediterranean,Morocco
Boujarah (Tetouan Basin),-5.321296347,35.57928506,Zanclean,Western Mediterranean,Morocco
Bour Yahor (Lower Chelif Basin),0.165516,36.026508,pre-evaporitic Messinian,Western Mediterranean,Algeria
Bra Cuneo,7.854894934,44.6924485,Zanclean,Po Plain-Northern Adriatic,Italy
Breolungi (Piedmont),7.792419996,44.42980917,Zanclean,Po Plain-Northern Adriatic,Italy
Briatico,16.03270616,38.72505805,Tortonian,Eastern Mediterranean,Italy
Bric del Dente la Morra,8.675808884,44.48196217,pre-evaporitic Messinian,Western Mediterranean,Italy
Briccone Sabbie d'Asti (Piedmont),8.17864,44.898334,Zanclean,Po Plain-Northern Adriatic,Italy
Brisighella,11.76900702,44.22178287,pre-evaporitic Messinian,Po Plain-Northern Adriatic,Italy
Bussana (Liguria),7.838478203,43.8236699,Zanclean,Western Mediterranean,Italy
Butano Elche,-0.723242,38.255476,Tortonian,Western Mediterranean,Spain
Buyukdere (Hatay Graben),36.04142543,36.5260622,Zanclean,Eastern Mediterranean,Turkey
Cabrieres (Rhone delta),4.468332703,43.90286679,Tortonian,Western Mediterranean,France
Cabrieres d'Aigues (Vaucluse_Rhone Basin),5.497495308,43.78467786,Tortonian,Western Mediterranean,France
Cacchiamo (Sicily),14.23132646,37.6827936,Tortonian,Eastern Mediterranean,Italy
Caccuri Cosenza (Calabria),16.77484426,39.2284089,Tortonian,Eastern Mediterranean,Italy
Cadirlitepe,30.828771,37.160516,Zanclean,Eastern Mediterranean,Turkey
Cagliari (Sardinia),9.122783102,39.22449589,Tortonian,Western Mediterranean,Italy
Cagnes sur Mer (La Combe Quarry_Var),7.148975383,43.66372135,Zanclean,Western Mediterranean,France
Cala Pisana (Lampedusa),12.62379763,35.50423761,Tortonian,Eastern Mediterranean,Italy
Cala Portals (Mallorca),2.57716384,39.53122932,Tortonian,Western Mediterranean,Spain
Calabria,16.040039,38.654897,pre-evaporitic Messinian,Eastern Mediterranean,Italy
Calatafimi (Trapani_Sicily),12.86354222,37.91421166,Tortonian,Eastern Mediterranean,Italy
Calisese (Forli),12.30147601,44.1018875,Tortonian,Po Plain-Northern Adriatic,Italy
Calliano,8.255121504,45.0069955,Zanclean,Po Plain-Northern Adriatic,Italy
Callonges-Serre (Cadenet_Rhone delta),5.298081645,44.08611779,Tortonian,Western Mediterranean,France
Ca-Lunga (Sabbie d'Asti_Piedmont),8.17864,44.898334,Zanclean,Po Plain-Northern Adriatic,Italy
Camerano Csasco (Sabbie d'Asti_Piedmont),8.09067297,44.98768343,Zanclean,Po Plain-Northern Adriatic,Italy
Camigliano (Grosseto_Tuscany),11.39921242,43.00724087,Zanclean,Western Mediterranean,Italy
Camino Tondo (Grosseto_Tuscany),11.157011,42.760824,Zanclean,Western Mediterranean,Italy
Campagnatico (Tuscany),11.27388015,42.88373711,Zanclean,Western Mediterranean,Italy
Campofelice (Palermo),13.3735987,38.15322392,pre-evaporitic Messinian,Eastern Mediterranean,Italy
Camporosso,7.62882573,43.81394533,Tortonian,Western Mediterranean,Italy
Campos del Rio Murcia,-1.352965552,38.04078624,pre-evaporitic Messinian,Western Mediterranean,Spain
Ca'n March (Catalonia),2.952829769,42.14169212,Tortonian,Western Mediterranean,Spain
Canada Brusca (Aguilas),-1.58296872,37.41181363,Zanclean,Western Mediterranean,Spain
Canal (Bajo Segura Basin),-0.662549,38.069458,Zanclean,Western Mediterranean,Spain
Cap des Trois Fourches (Melilla),-2.99356822,35.43506907,pre-evaporitic Messinian,Western Mediterranean,Morocco
Cap Figalo,-1.196025305,35.57249918,pre-evaporitic Messinian,Western Mediterranean,Algeria
Capo di Fiume (Porrara),15.04087071,40.44978375,pre-evaporitic Messinian,Western Mediterranean,Italy
Capo Ognina (Sicily),15.26666667,36.96656296,Tortonian,Eastern Mediterranean,Italy
Capo Rossello (Sicily),13.45020358,37.29517893,Zanclean,Eastern Mediterranean,Italy
"Capo Rossello, log 41 (Sicily)",13.463869,37.295711,Zanclean,Eastern Mediterranean,Italy
Capo San Marco (Sardinia),8.435954999,39.86262995,Tortonian,Western Mediterranean,Italy
Capodarso (Sicily),14.14555848,37.49512848,Tortonian,Eastern Mediterranean,Italy
Carafa del Bianco,16.08759469,38.09214915,Zanclean,Eastern Mediterranean,Italy
Carboneras,-1.891980658,36.99906307,pre-evaporitic Messinian,Western Mediterranean,Spain
Caria Vibo Valentia (Calabria),15.90621072,38.646316,Tortonian,Eastern Mediterranean,Italy
Carianne (Vaucluse_Rhone delta),4.934946232,44.23347138,Tortonian,Western Mediterranean,France
Cariatiz,-2.087810208,37.14532134,pre-evaporitic Messinian,Western Mediterranean,Spain
Carmona (Andalousia),-5.638966172,37.45488301,Tortonian,Western Mediterranean,Spain
Carnot,7.016431864,43.56269342,pre-evaporitic Messinian,Western Mediterranean,Algeria
Carriatiz (Sorbas),-2.087810208,37.14532134,pre-evaporitic Messinian,Western Mediterranean,Spain
Casa Caforno (Livorno),10.331635,43.54602,Tortonian,Western Mediterranean,Italy
Casa Gessi (Emilia Romagna),12.37950564,43.97564413,pre-evaporitic Messinian,Po Plain-Northern Adriatic,Italy
Casa Pestavecchia,11.217923,43.670812,pre-evaporitic Messinian,Po Plain-Northern Adriatic,Italy
Casa Villa (Piacenza),9.725801372,44.7806477,Tortonian,Po Plain-Northern Adriatic,Italy
Casale Monferrato (Asti),8.333332245,44.8332054,Zanclean,Po Plain-Northern Adriatic,Italy
Case il Poggio (Val di Pugna_Siena),11.34739,43.324001,Zanclean,Western Mediterranean,Italy
Case Pelacani (Sicily),14.190065,37.719599,Tortonian,Eastern Mediterranean,Italy
Castelcebro,8.141794101,45.03293173,Zanclean,Po Plain-Northern Adriatic,Italy
Castellarano,10.73299147,44.51333854,Zanclean,Po Plain-Northern Adriatic,Italy
Castelletto d'Orba (Alessandria),8.705635584,44.68437119,pre-evaporitic Messinian,Po Plain-Northern Adriatic,Italy
Castelnuovo nei Monti (Reggio Emilia),10.40063613,44.43386956,Tortonian,Po Plain-Northern Adriatic,Italy
Castlnau (Montpellier),3.898208978,43.63386614,Zanclean,Western Mediterranean,Spain
Castrocaro,11.94768901,44.17059822,Zanclean,Po Plain-Northern Adriatic,Italy
Catanzaro,16.58795616,38.91004955,Tortonian,Eastern Mediterranean,Italy
Cava Cisterna (Cavallino),18.18937935,40.31665847,Tortonian,Western Mediterranean,Italy
Cava Gentile (Vibo Valentia),16.093258,38.677807,Tortonian,Eastern Mediterranean,Italy
Cava Macello (Lecce),18.202962,40.350206,Tortonian,Eastern Mediterranean,Italy
Cava Serredi (Tuscany),10.4575,43.493056,Zanclean,Western Mediterranean,Italy
Cejo de los Enamorados (Lorca),-1.711533018,37.67714591,pre-evaporitic Messinian,Western Mediterranean,Spain
Central Crete,25.14212115,35.33729409,Tortonian,Eastern Mediterranean,Greece
Ceriale (Savona),8.231572374,44.0968177,Zanclean,Western Mediterranean,Italy
Cerro de San Anton,-4.359077773,36.74546028,Zanclean,Western Mediterranean,Spain
Cerro Mandras (Sorbas Basin),-2.126134,37.098512,pre-evaporitic Messinian,Western Mediterranean,Spain
Cessaniti,16.02619506,38.66321062,Tortonian,Eastern Mediterranean,Italy
Chania (Crete),24.0178734,35.51455258,Tortonian,Eastern Mediterranean,Greece
Charf el Akab,-4.528894,34.975688,pre-evaporitic Messinian,Western Mediterranean,Morocco
Charouit (Kedbana),-1.485863,35.27162,pre-evaporitic Messinian,Western Mediterranean,Algeria
Chelif Basin,1.35288336,36.17300912,Tortonian,Western Mediterranean,Algeria
Cherasco (Cuneo),7.858247909,44.64725729,Zanclean,Po Plain-Northern Adriatic,Italy
Cheurfa,7.55427323,36.72170685,pre-evaporitic Messinian,Western Mediterranean,Algeria
Chianciano Terme (Siena),11.81489776,43.04481588,Zanclean,Western Mediterranean,Italy
Chicamo River (Fortuna Basin),-0.992748,38.260768,pre-evaporitic Messinian,Western Mediterranean,Spain
Chieri (Torino),7.827231536,45.00910222,Tortonian,Po Plain-Northern Adriatic,Italy
Chimilin (Chambery_Isere_Rhone),5.600538056,45.576788,Tortonian,Western Mediterranean,France
Chomatolakkos (Crete),25.76821779,35.01800733,Tortonian,Eastern Mediterranean,Greece
Ciolo (Salento),18.38551208,39.84412422,pre-evaporitic Messinian,Eastern Mediterranean,Italy
Cisterna Quarry (Pietra Leccese),18.30029138,40.15304884,Tortonian,Eastern Mediterranean,Italy
Citadelle Montpellier,3.884921483,43.61157581,Zanclean,Western Mediterranean,France
Ciuciano (Siena),11.030421,43.42663155,Zanclean,Western Mediterranean,Italy
Coalba (Valsugana),12.369434,45.746719,Tortonian,Po Plain-Northern Adriatic,Italy
Cobatillas,-1.07733019,38.05595046,Tortonian,Western Mediterranean,Spain
Colli Torinesi,7.626168,45.145694,Tortonian,Po Plain-Northern Adriatic,Italy
Colline di Montiglio,8.09839061,45.06451519,Zanclean,Po Plain-Northern Adriatic,Italy
Columbares,-1.022353656,37.92507042,pre-evaporitic Messinian,Western Mediterranean,Spain
Com (Antakia),36.2,32.033333,Tortonian,Eastern Mediterranean,Turkey
Comtat (Vaucluse_Rhone),4.800143307,43.94832933,Tortonian,Western Mediterranean,France
Conidoni,16.03700394,38.70435664,Tortonian,Eastern Mediterranean,Italy
Contrada Bessima (Sicily),14.140888,37.458343,pre-evaporitic Messinian,Eastern Mediterranean,Italy
Cortandone (Sabbir d'Asti_Piedmont),8.059678799,44.95791724,Zanclean,Po Plain-Northern Adriatic,Italy
Cortijo Ruil,-2.212821,36.954734,pre-evaporitic Messinian,Western Mediterranean,Spain
Corvera (San Migues de Salinas Basin),-1.158046023,37.830972,pre-evaporitic Messinian,Western Mediterranean,Spain
Cozzo San Pantaleo,9.467753604,41.04609173,pre-evaporitic Messinian,Western Mediterranean,Italy
Cozzo tunisino,14.002222,37.663611,pre-evaporitic Messinian,Eastern Mediterranean,Italy
Crescentino (Vercelli_Piedmont),8.102660891,45.19189786,Zanclean,Po Plain-Northern Adriatic,Italy
Crete,24.80635239,35.2360624,pre-evaporitic Messinian,Eastern Mediterranean,Greece
Cropalati,16.72444556,39.51568086,Tortonian,Eastern Mediterranean,Italy
Cubertera (Catalonia),2.290282905,41.53294642,Tortonian,Western Mediterranean,Spain
Cubertera and Ca'n Mayol (Catalonia),2.290282905,41.53294642,Tortonian,Western Mediterranean,Spain
Cucuron,5.440540383,43.77202725,Tortonian,Western Mediterranean,France
Cuenca de Vera (Almeria),-1.867775738,37.24772614,Zanclean,Western Mediterranean,Spain
Cuenca del Bajo Segura,-0.715421,37.954226,Tortonian,Western Mediterranean,Spain
Cuenca del Guadalquivir,-4.792678052,38.06405204,pre-evaporitic Messinian,Western Mediterranean,Spain
Cuevas del Almanzora (Vera Basin),-1.875975012,37.29216362,Zanclean,Western Mediterranean,Spain
Cyprus,33.22271443,35.04608186,Zanclean,Eastern Mediterranean,Cyprus
Damanhour South 1 well (Nile delta),30.47278948,31.04243801,pre-evaporitic Messinian,Eastern Mediterranean,Egypt
De Ferrari square (Genova),8.934029072,44.40718487,Zanclean,Western Mediterranean,Italy
Dertone (Tortona),8.863702842,44.89498783,Tortonian,Po Plain-Northern Adriatic,Italy
Djebel Aoud Sma (Lower Chelif Basin),-0.288055635,35.50253412,pre-evaporitic Messinian,Western Mediterranean,Algeria
Djebel Ben Dourda (Chelif Basin),0.395278,36.085,pre-evaporitic Messinian,Western Mediterranean,Algeria
Djebel Krechem,1.182948215,33.2534619,Tortonian,Western Mediterranean,Algeria
Djebel Meni,0.439166665,36.00222133,Tortonian,Western Mediterranean,Algeria
Djebel Skouna,-1.39384602,35.26076235,pre-evaporitic Messinian,Western Mediterranean,Algeria
Djebel Tadjahmoumat (Lowe Chelif Basin),1.473065449,36.28278792,pre-evaporitic Messinian,Western Mediterranean,Algeria
Djebel Touaka (El Ghomri_Djebel Menie_Abreuvoir),0.499722165,35.51333248,Zanclean,Western Mediterranean,Algeria
Djebouia (Chelif Basin),0.14204129,36.03264918,pre-evaporitic Messinian,Western Mediterranean,Algeria
Douar Sidi Bou Azza (Tafna Basin),-1.431126931,35.20732807,pre-evaporitic Messinian,Western Mediterranean,Algeria
Doue-la-Fontaine (Maine et Loire),4.885485038,43.71817083,Tortonian,Western Mediterranean,France
Draa Sidi Saada (Guercif Basin),-3.148527,34.266293,Tortonian,Western Mediterranean,Morocco
Dragopsa,20.68329478,39.59543397,Tortonian,Eastern Mediterranean,Greece
Drosi (Crete),24.92818068,35.11940434,Tortonian,Eastern Mediterranean,Greece
East Crete,25.87348358,35.15744102,Tortonian,Eastern Mediterranean,Greece
El Alamillo (Cuenca de Mazarrian_Murcia),-1.248471618,37.57461691,Zanclean,Western Mediterranean,Spain
El Lobillo (Estepona),-5.140962257,36.43257401,Zanclean,Western Mediterranean,Spain
El Mazar 1 well (North Sinai),33.38114052,31.04129245,Tortonian,Eastern Mediterranean,Egypt
El Menzel (SE Fes),-4.835304691,33.83051541,pre-evaporitic Messinian,Western Mediterranean,Morocco
El Ouata (South Fes),-4.690042951,33.878126,pre-evaporitic Messinian,Western Mediterranean,Morocco
El Plomo (Almeria),-2.431024,36.822086,Tortonian,Western Mediterranean,Spain
El Qawasim 1 well (Nile delta),31.645471,30.824659,Tortonian,Eastern Mediterranean,Egypt
Elche,-0.71268491,38.26982958,pre-evaporitic Messinian,Western Mediterranean,Spain
Empoli,10.94764514,43.71772617,Zanclean,Po Plain-Northern Adriatic,Italy
Enna (Sicily),14.27989212,37.56802925,Tortonian,Eastern Mediterranean,Italy
Episkopi,32.871619,34.692641,Tortonian,Eastern Mediterranean,Cyprus
Eraclea Minoa (Sicily),13.29124131,37.39422461,Zanclean,Eastern Mediterranean,Italy
Escaravatier (Var),6.682747269,43.44453956,Zanclean,Western Mediterranean,France
Essovouyes-Exovouyes,33.532317,35.011483,Zanclean,Eastern Mediterranean,Cyprus
Estepona,5.150278,36.426111,Zanclean,Western Mediterranean,Spain
Estepona Basin,5.150278,36.426111,Zanclean,Western Mediterranean,Spain
Eyssarettes Puymyras (Rhone delta),5.139205765,44.28343229,Tortonian,Western Mediterranean,France
Falconara (Sicily),14.568889,37.127222,Tortonian,Eastern Mediterranean,Italy
Fanantello (Vena del Gesso),12.103611,43.949722,pre-evaporitic Messinian,Po Plain-Northern Adriatic,Italy
Faneromeni (Crete),26.063786,35.223744,Tortonian,Eastern Mediterranean,Greece
Faro Santa Croce (Ragusa_Sicily),15.25621329,37.24340529,pre-evaporitic Messinian,Eastern Mediterranean,Italy
Fawwara,14.40955637,35.83968102,Tortonian,Eastern Mediterranean,Malta
Fedj el Alem,2.99823,36.276595,Tortonian,Western Mediterranean,Algeria
Fes,-5.007530425,34.01902623,Tortonian,Western Mediterranean,Morocco
Festos (Crete),24.86400599,35.05404272,Tortonian,Eastern Mediterranean,Greece
Figaiolles (Montpellier),3.861787889,43.60498232,Zanclean,Western Mediterranean,France
Figueras (Catalonia),2.958119775,42.26556721,Zanclean,Western Mediterranean,Spain
Filippi (Crete),25.24253712,35.03548908,Tortonian,Eastern Mediterranean,Greece
Fitilli,25.148276,35.160764,Tortonian,Eastern Mediterranean,Greece
Fiumara Capperano,8.882323198,44.41224372,Zanclean,Western Mediterranean,Italy
Forage de Douiet,2.061702,35.105186,Tortonian,Western Mediterranean,Algeria
Formentera,1.453304891,38.69639265,Tortonian,Western Mediterranean,Spain
Fornaci (Savona),8.27255977,44.16168974,Zanclean,Western Mediterranean,Italy
Fornaci San Quirico d'Orcia (Siena),11.6049651,43.05795524,Zanclean,Western Mediterranean,Italy
Fornaciari (Piacenza),9.385261,44.932149,Tortonian,Po Plain-Northern Adriatic,Italy
Forte Luesci,13.550736,32.201435,Tortonian,Eastern Mediterranean,Libya
Fortuna Basin,-1.124445651,38.1806921,Tortonian,Western Mediterranean,Spain
Fuehat,13.594682,32.275776,Tortonian,Eastern Mediterranean,Libya
Fuengirola (Malaga),-4.624070573,36.54390083,Zanclean,Western Mediterranean,Spain
Gabbro (Tuscany),10.44423102,43.48148738,pre-evaporitic Messinian,Western Mediterranean,Italy
Gabo de Gata (Almeria),-2.241909795,36.78169681,pre-evaporitic Messinian,Western Mediterranean,Spain
Gallina (Calabria),15.67834071,38.08629013,Zanclean,Eastern Mediterranean,Italy
Gambetta-St. Eugene (Chelif Basin),-0.617733,35.715377,pre-evaporitic Messinian,Western Mediterranean,Algeria
Gare Saint Paul de Lyon (Rhone),4.827356398,45.76612759,Tortonian,Western Mediterranean,France
Gargar (Lower Chelif Basin),-0.566106,35.63019,pre-evaporitic Messinian,Western Mediterranean,Algeria
Garruchal (Bajo Segura Basin),-1.016124773,37.83189623,pre-evaporitic Messinian,Western Mediterranean,Spain
Gavazzana (Alessandria),8.886163628,44.77574642,pre-evaporitic Messinian,Po Plain-Northern Adriatic,Italy
Gavdos,24.08447853,34.84628185,Tortonian,Eastern Mediterranean,Greece
Gello,10.42491251,43.75546181,pre-evaporitic Messinian,Western Mediterranean,Italy
Genova,8.945755895,44.40521056,Zanclean,Western Mediterranean,Italy
Gerace (Calabria),16.22162446,38.27196012,Zanclean,Eastern Mediterranean,Italy
Gergeri-Raptis (Crete),24.964444,35.1125,Tortonian,Eastern Mediterranean,Greece
Gessaro and Stingeti,14.880278,41.902222,pre-evaporitic Messinian,Po Plain-Northern Adriatic,Italy
Gessaro quarry,14.895833,41.889722,Zanclean,Po Plain-Northern Adriatic,Italy
Ghajn Znuber,14.3434165,35.95004229,pre-evaporitic Messinian,Eastern Mediterranean,Malta
Ghar Lapsi,14.42476784,35.82723971,Tortonian,Eastern Mediterranean,Malta
Gibliscemi,14.268056,37.204444,Tortonian,Eastern Mediterranean,Italy
Giolou,32.4769269,34.92264258,Zanclean,Eastern Mediterranean,Cyprus
Giusulana (Alessandria),8.91221133,44.77547522,Tortonian,Po Plain-Northern Adriatic,Italy
Gonies (Crete),25.44248574,35.22983362,Tortonian,Eastern Mediterranean,Greece
Gonies I (Kythira),22.975967,36.298506,Tortonian,Eastern Mediterranean,Greece
Gonies II (Kythira),22.975967,36.298506,Tortonian,Eastern Mediterranean,Greece
Gonies III (Kythira),22.975967,36.298506,Tortonian,Eastern Mediterranean,Greece
Gorgo (Livorno),10.33936,43.568537,Tortonian,Western Mediterranean,Italy
Gortys (Crete),25.095278,35.154722,Tortonian,Eastern Mediterranean,Greece
Gozo,14.25088289,36.04420402,Tortonian,Eastern Mediterranean,Malta
Gramvoussa (Crete),23.5847582,35.62644822,Tortonian,Eastern Mediterranean,Greece
Granada Basin,-3.598829596,37.17750534,Tortonian,Western Mediterranean,Spain
Greece,21.81490104,39.03975838,Tortonian,Eastern Mediterranean,Greece
Greensand,14.418924,35.938178,Tortonian,Eastern Mediterranean,Malta
Guadalmansa (Estepona_Malaga),-5.063694753,36.45182472,Zanclean,Western Mediterranean,Spain
Guadix Basin,-3.14024084,37.30135287,Tortonian,Western Mediterranean,Spain
Guardavalle (Catanzaro_Calabria),16.50142193,38.50614218,Tortonian,Eastern Mediterranean,Italy
Guarene d'Alba (Cuneo),8.045040712,44.72918991,Tortonian,Po Plain-Northern Adriatic,Italy
Guercif Basin,-3.349542616,34.23032187,Tortonian,Western Mediterranean,Morocco
Haciahmetli section,35.939417,36.384972,Tortonian,Eastern Mediterranean,Turkey
Hamadouche (Lower Chelif Basin),-0.548732762,35.30001131,pre-evaporitic Messinian,Western Mediterranean,Algeria
Hammamet Gulf (Jiriba-1 borehole),3.253657841,36.68431345,Zanclean,Western Mediterranean,Algeria
Hammar Semmoumet (Lower Chelif Basin),0.165516,36.026508,pre-evaporitic Messinian,Western Mediterranean,Algeria
Haoudh El Kebir (Chelif Basin),-0.706976081,35.72910064,pre-evaporitic Messinian,Western Mediterranean,Algeria
Happy Valley,32.623198,34.977733,Tortonian,Eastern Mediterranean,Cyprus
Hatay Graben,36.16082025,36.20244517,Zanclean,Eastern Mediterranean,Turkey
Hauterives (Drome_Rhone Basin),5.028631683,45.25718448,Tortonian,Western Mediterranean,France
Hellin,-1.69772444,38.5068376,Tortonian,Western Mediterranean,Spain
Herault,3.883169635,43.60870633,Tortonian,Western Mediterranean,France
Hueli (Sorbas),-2.122422,37.09947,pre-evaporitic Messinian,Western Mediterranean,Spain
Hurchillo (Alicante),-0.922286484,38.05936955,pre-evaporitic Messinian,Western Mediterranean,Spain
Iberkanenr (Kebdana Basin),-2.660000036,34.99989372,pre-evaporitic Messinian,Western Mediterranean,Morocco
Ibiza,1.420807204,38.9065922,Tortonian,Western Mediterranean,Spain
Ichemlalene (Kert Basin),4.51684362,36.84766913,pre-evaporitic Messinian,Western Mediterranean,Morocco
Idorotshene (Melilla Basin),-2.942817,35.247366,pre-evaporitic Messinian,Western Mediterranean,Morocco
Idoudouhane (Melilla Basin),-2.942817,35.247366,pre-evaporitic Messinian,Western Mediterranean,Morocco
Ierapetra,25.74075105,35.01143114,Tortonian,Eastern Mediterranean,Greece
In-n-Narramine (Segangane Basin),-3.000200864,35.1589169,pre-evaporitic Messinian,Western Mediterranean,Morocco
Internal Rif,5.318889,35.519722,Zanclean,Western Mediterranean,Morocco
Irachamene (Boudinar Basin),-3.62993,35.145265,pre-evaporitic Messinian,Western Mediterranean,Morocco
Irhzazene (Melilla Basin),-2.951743,35.251852,pre-evaporitic Messinian,Western Mediterranean,Morocco
Iscala Sale (Sardinia),9.714486404,40.6804435,pre-evaporitic Messinian,Western Mediterranean,Italy
Isere (Rhone Basin),5.732656439,45.18436856,Tortonian,Western Mediterranean,France
Italy,12.44132604,43.07701918,Tortonian,Western Mediterranean,Italy
Jayena (Granada Basin),-3.82290418,36.9484645,Tortonian,Western Mediterranean,Spain
Jbel Lambignat (Kebdana Basin),-2.654506912,35.03038422,pre-evaporitic Messinian,Western Mediterranean,Morocco
Jbiouia,0.774872,35.969773,pre-evaporitic Messinian,Western Mediterranean,Algeria
Jebel Achil ou Zobzit (South Fes_Taza_Guercif Basin),-3.328086172,34.21910202,Tortonian,Western Mediterranean,Morocco
Jebel Binette,-3.65327104,34.77966653,Tortonian,Western Mediterranean,Morocco
Jebel Bou Haidour (West Tadount),-3.309082094,34.72867152,Tortonian,Western Mediterranean,Morocco
Jebel Faouar,10.31221854,36.27327317,Tortonian,Eastern Mediterranean,Tunisia
Jebel Hakima,10.06083327,37.1910419,Tortonian,Western Mediterranean,Tunisia
Jebel Kechabta (South of Bizerte lake),9.951431781,37.11218716,Tortonian,Western Mediterranean,Tunisia
Jebel Sarij (South of Taza_Guercif Basin),-3.328086172,34.21910202,Tortonian,Western Mediterranean,Morocco
Jebel Tizeroutine (North of Taza_Guercif Basin),-3.78162382,34.55444359,Tortonian,Western Mediterranean,Morocco
Jijel,5.751531671,36.81544693,pre-evaporitic Messinian,Western Mediterranean,Algeria
Kafr El Dawar 1 well (Nile delta),30.13370719,31.1340092,Tortonian,Eastern Mediterranean,Egypt
Kafr El Sheikh 1 well (Nile delta),30.93898232,31.11109117,pre-evaporitic Messinian,Eastern Mediterranean,Egypt
Kaimeni (Crete),23.333604,37.61456003,Tortonian,Eastern Mediterranean,Greece
Kalamaki (Zakynthos),20.917778,37.737222,pre-evaporitic Messinian,Eastern Mediterranean,Greece
Kalamavka (Crete),25.65660224,35.07593228,Tortonian,Eastern Mediterranean,Greece
Kalogeri (Crete),25.67177248,35.03115278,Tortonian,Eastern Mediterranean,Greece
Kapariana (Crete),24.895083,35.061528,pre-evaporitic Messinian,Eastern Mediterranean,Greece
Kaplica,33.91329334,35.41322456,Tortonian,Eastern Mediterranean,Cyprus
Karaali (Hatay Graben),36.15467167,36.30510325,Zanclean,Eastern Mediterranean,Turkey
Karave (Gavdos),24.11700772,34.84876449,Tortonian,Eastern Mediterranean,Greece
Kavouri,21.36177595,37.6631997,Tortonian,Eastern Mediterranean,Greece
Kebdana,-2.416241237,35.13108566,pre-evaporitic Messinian,Western Mediterranean,Morocco
Kefala (Crete),25.71205336,35.04872974,Tortonian,Eastern Mediterranean,Greece
Kentri (Crete),25.75315267,35.03295273,Tortonian,Eastern Mediterranean,Greece
Kephallonia,20.56968318,38.17675512,Tortonian,Eastern Mediterranean,Greece
Kesecik (Hatay Graben),36.09183096,36.25143887,Zanclean,Eastern Mediterranean,Turkey
Khairetiana (Crete),24.94842086,35.11046124,pre-evaporitic Messinian,Eastern Mediterranean,Greece
Khirokitia,33.34398666,34.79644188,Tortonian,Eastern Mediterranean,Cyprus
Kizlargozu section,35.847756,36.365228,pre-evaporitic Messinian,Eastern Mediterranean,Turkey
Korfi (Gavdos),24.09877788,34.82900387,Tortonian,Eastern Mediterranean,Greece
Kotsiana,23.71776252,35.48369367,Tortonian,Eastern Mediterranean,Greece
Koudia Mereina,6.59157962,36.89954046,pre-evaporitic Messinian,Western Mediterranean,Algeria
Koudiat Airane,3.475983504,34.74279025,Tortonian,Western Mediterranean,Morocco
Koumi (Kavrochori),24.44080709,35.27329475,pre-evaporitic Messinian,Eastern Mediterranean,Greece
Kourtes (Crete),24.90415836,35.11070984,Tortonian,Eastern Mediterranean,Greece
Koutsounari,25.82992364,35.01673114,pre-evaporitic Messinian,Eastern Mediterranean,Greece
Kusalani (Hatay Graben),36.01167044,36.09553133,Zanclean,Eastern Mediterranean,Turkey
Kuzucubelen (Mersin),34.45,36.8,pre-evaporitic Messinian,Eastern Mediterranean,Turkey
La Bastidonne (Vaucluse),5.567667893,43.70096952,Tortonian,Western Mediterranean,France
La Colle sur Loup (Montfort_Var),7.110351799,43.67943212,Zanclean,Western Mediterranean,France
La Guardiola (Ibiza),1.362438,38.940589,Tortonian,Western Mediterranean,Spain
La Lancha (Guadix Basin),-3.145347,37.310916,Tortonian,Western Mediterranean,Spain
La Mela (Sorbas Basin),-2.127657632,37.09856338,pre-evaporitic Messinian,Western Mediterranean,Spain
La Sayvonne (Visan_Rhone delta),4.963362,44.314035,Tortonian,Western Mediterranean,France
La Serra (Catalonia),2.216667598,41.65002167,Tortonian,Western Mediterranean,Spain
La Serratilla (Fortuna Basin),0.030121554,40.31983998,Tortonian,Western Mediterranean,Spain
La Spessa (Valsugana),12.369778,45.747183,Tortonian,Po Plain-Northern Adriatic,Italy
La Torretta,12.492956,41.77747,Zanclean,Western Mediterranean,Italy
Lalla Kouba (Kabylie des Babors),5.504958463,36.60678009,Tortonian,Western Mediterranean,Algeria
Lampedusa,12.60575847,35.50039438,pre-evaporitic Messinian,Eastern Mediterranean,Italy
Landro (Sicily),13.98895188,37.6519642,pre-evaporitic Messinian,Eastern Mediterranean,Italy
Lari Oussardoun (Boudinar Basin),-3.623578985,35.1462997,pre-evaporitic Messinian,Western Mediterranean,Morocco
Las Negras (Almeria),-2.011301395,36.87935857,Tortonian,Western Mediterranean,Spain
Las Palmares,4.418889,36.735,Zanclean,Western Mediterranean,Spain
Le Puget sur Argens (Var),6.683546827,43.45545021,Zanclean,Western Mediterranean,France
Le Saline (Tuscany),9.816024388,43.00955587,Zanclean,Western Mediterranean,Italy
Legnagnone (Emilia Romagna),12.352222,43.919444,pre-evaporitic Messinian,Po Plain-Northern Adriatic,Italy
Legoli (Pisa),10.7929985,43.57101016,Zanclean,Western Mediterranean,Italy
Lemme,12.0019459,42.44777154,Tortonian,Western Mediterranean,Italy
Les Planteurs (Chelif Basin),1.316889174,36.11183286,pre-evaporitic Messinian,Western Mediterranean,Algeria
Les Ponsons (Drome_Rhone Basin),4.72727478,45.09035654,Tortonian,Western Mediterranean,France
Leuca (Salento),18.3548084,39.7994077,pre-evaporitic Messinian,Eastern Mediterranean,Italy
Libya,15.19726276,30.19802734,Tortonian,Eastern Mediterranean,Libya
Licata (Sicily),13.93728759,37.10184221,pre-evaporitic Messinian,Eastern Mediterranean,Italy
Liguria,8.79009704,44.45584775,Zanclean,Western Mediterranean,Spain
Limonar,4.368056,36.718889,Zanclean,Western Mediterranean,Spain
Livorno,10.30880241,43.54873617,pre-evaporitic Messinian,Western Mediterranean,Italy
Llora (Granada Basin),-3.880488097,37.28691482,Tortonian,Western Mediterranean,Spain
Lo Rufete (Bajo Segura Basin),-0.822637073,37.99720328,pre-evaporitic Messinian,Western Mediterranean,Spain
Lorca,-1.6973119,37.67367359,Tortonian,Western Mediterranean,Spain
Los Lobos (Sorbas Basin),-1.764469121,37.30811815,pre-evaporitic Messinian,Western Mediterranean,Spain
Los Molinos (Sorbas Basin),-2.072897655,37.08760067,pre-evaporitic Messinian,Western Mediterranean,Spain
Los Yesos (Sorbas Basin),-3.262430604,36.7527232,pre-evaporitic Messinian,Western Mediterranean,Spain
Lyon,4.835570831,45.76405036,Tortonian,Western Mediterranean,France
Maccarone,13.100417,43.405833,Zanclean,Po Plain-Northern Adriatic,Italy
Machairidi Gdochia,25.55473425,35.01687668,Tortonian,Eastern Mediterranean,Greece
Magnano (Biella),8.002059011,45.46295746,Zanclean,Po Plain-Northern Adriatic,Italy
Maiella Mountain,14.0860596,42.08632542,pre-evaporitic Messinian,Western Mediterranean,Italy
Malaga Basin,-4.424198017,36.71963081,Zanclean,Western Mediterranean,Spain
Mallorca,3.021930239,39.70152799,Tortonian,Western Mediterranean,Spain
Malta,14.45043881,35.88397614,pre-evaporitic Messinian,Eastern Mediterranean,Malta
Manasi (Lefkas),20.61002371,38.69414079,Tortonian,Eastern Mediterranean,Greece
Manilva Basin,-5.25073336,36.37614143,Zanclean,Western Mediterranean,Spain
Marbzier (Montpellier),3.847385845,43.65794408,Zanclean,Western Mediterranean,France
Marecchia River,12.44010048,44.03293282,Zanclean,Po Plain-Northern Adriatic,Italy
Marentino (Asti_Piedmont),7.879277,45.051725,Zanclean,Po Plain-Northern Adriatic,Italy
Marmorito,8.019799484,45.06923015,Zanclean,Po Plain-Northern Adriatic,Italy
Masserano (Biella),8.226629716,45.59336109,Zanclean,Po Plain-Northern Adriatic,Italy
Masseria il Salto (Sicily),14.58938166,37.29654251,pre-evaporitic Messinian,Eastern Mediterranean,Italy
Masseria Torricella (Lecce),17.89535942,40.34370454,Zanclean,Eastern Mediterranean,Italy
Matala (Crete),24.74945275,34.99334828,Tortonian,Eastern Mediterranean,Greece
Medea,2.748840567,36.30385878,Tortonian,Western Mediterranean,Algeria
Meduna,12.76025568,45.99143058,Tortonian,Po Plain-Northern Adriatic,Italy
Meknes (Sais Basin),-5.494079814,33.86401687,Tortonian,Western Mediterranean,Morocco
Melilla,-2.937660186,35.29209599,pre-evaporitic Messinian,Western Mediterranean,Morocco
Menorca,3.838673246,39.9991544,Tortonian,Western Mediterranean,Spain
Mesa Roldan (Agua Amarga Basin_Almeria),-1.906471435,36.94156908,Tortonian,Western Mediterranean,Spain
Mesaoria,33.70894422,35.18985028,Zanclean,Eastern Mediterranean,Cyprus
Messina (Sicily),15.55364683,38.19671218,pre-evaporitic Messinian,Eastern Mediterranean,Italy
Metochi Kardamiana (Crete),21.39949166,38.12575393,Tortonian,Eastern Mediterranean,Greece
Metochia (Gavdos),24.100278,34.853611,pre-evaporitic Messinian,Eastern Mediterranean,Greece
Mezquitilla,4.035278,36.751111,Zanclean,Western Mediterranean,Spain
Milazzo (Sicily),15.2415525,38.2209635,pre-evaporitic Messinian,Eastern Mediterranean,Italy
Mires (Crete),24.87290313,35.05157124,pre-evaporitic Messinian,Eastern Mediterranean,Greece
Mirzakli-Kirectepe (Hatay Graben),36.00337188,36.1260978,Zanclean,Eastern Mediterranean,Turkey
Mit Ghamr 1 well (Nile delta),31.25981983,30.71986151,Zanclean,Eastern Mediterranean,Egypt
Mitata (Kythira),22.9936177,36.2460994,Zanclean,Eastern Mediterranean,Greece
Modena,10.92464985,44.64699655,Tortonian,Po Plain-Northern Adriatic,Italy
Monachil (Granada Basin),-3.540314697,37.13224135,Tortonian,Western Mediterranean,Spain
Monbercelli (Sabbie d'Asti_Piedmont),8.293597139,44.82310848,Zanclean,Po Plain-Northern Adriatic,Italy
Moncalvo (Piedmont),8.240278,45.052222,pre-evaporitic Messinian,Po Plain-Northern Adriatic,Italy
Moncucco (Piedmont),8.286429246,44.80744091,Zanclean,Po Plain-Northern Adriatic,Italy
Mondaino,12.67158838,43.85738137,pre-evaporitic Messinian,Po Plain-Northern Adriatic,Italy
Mongardino (Bologna),11.21109027,44.41767925,Tortonian,Po Plain-Northern Adriatic,Italy
Moni Gorgolaini (Crete),24.98977581,35.20616277,Tortonian,Eastern Mediterranean,Greece
Montafia (Sabbie d'Asti_Piedmont),8.025974378,44.9890134,Zanclean,Po Plain-Northern Adriatic,Italy
Montagnano (Arezzo_Tuscany),11.81118232,43.34786388,Tortonian,Western Mediterranean,Italy
Montalcino (Tuscany),11.48932277,43.05503174,Zanclean,Western Mediterranean,Italy
Monte Antico (Grosseto),11.36361724,42.98312527,Zanclean,Western Mediterranean,Italy
Monte Capriolo (Bra_Cuneo),7.598939248,44.37308531,Zanclean,Po Plain-Northern Adriatic,Italy
Monte Carrubba (Sicily),14.56394962,37.5781174,Tortonian,Eastern Mediterranean,Italy
Monte dei Corvi,13.55004288,43.58327024,Tortonian,Po Plain-Northern Adriatic,Italy
Monte del Casino,11.625,44.269722,Tortonian,Po Plain-Northern Adriatic,Italy
Monte della Verna,11.9313035,43.70686467,Tortonian,Po Plain-Northern Adriatic,Italy
Monte Fiocca Presso Sassari (Sardinia),10.25231788,44.07189845,Tortonian,Western Mediterranean,Italy
Monte Mario,12.45017055,41.91653283,Zanclean,Western Mediterranean,Italy
Monte Oliveto (Emilia Romagna),11.71915187,44.85193127,Zanclean,Po Plain-Northern Adriatic,Italy
Monte Poro (Vibo Valentia_Calabria),15.90450153,38.59868669,Tortonian,Eastern Mediterranean,Italy
Monte San Nicola,13.66087904,42.12268245,Zanclean,Western Mediterranean,Italy
Montebaranzone (Modena),10.77527557,44.47955177,Tortonian,Po Plain-Northern Adriatic,Italy
Montebello,12.3680614,43.97034682,Tortonian,Po Plain-Northern Adriatic,Italy
Montegibbio,10.78305853,44.51135448,Tortonian,Po Plain-Northern Adriatic,Italy
Monteleone,12.26624461,44.04629126,Tortonian,Po Plain-Northern Adriatic,Italy
Montenero,10.3460776,43.49152034,Zanclean,Western Mediterranean,Italy
Monteu Roero,7.938070572,44.77929388,Zanclean,Po Plain-Northern Adriatic,Italy
Montezago (Emilia Romagna),9.780116227,44.83298165,Zanclean,Po Plain-Northern Adriatic,Italy
Montforte (Sicily),15.38258905,38.15644456,Tortonian,Eastern Mediterranean,Italy
Monti Livornesi,10.41670958,43.41663464,pre-evaporitic Messinian,Western Mediterranean,Italy
Monticino,11.48902236,43.0550631,Zanclean,Western Mediterranean,Italy
Montjuic (Catalonia),2.167535983,41.3639349,Tortonian,Western Mediterranean,Spain
Montpellier,3.877258754,43.61050802,Zanclean,Western Mediterranean,France
Montvendre (Drome_Rhone Basin),5.021603608,44.87094303,Tortonian,Western Mediterranean,France
Morocco,-3.702596318,35.11246749,pre-evaporitic Messinian,Western Mediterranean,Morocco
Mouchli Lakkos,26.15352507,35.18377648,Tortonian,Eastern Mediterranean,Greece
Moulay el Arbi (Boudinar Basin),-3.624265,35.148003,Tortonian,Western Mediterranean,Morocco
Mount Capriolo (Piedmont),11.07867457,45.5923179,Zanclean,Po Plain-Northern Adriatic,Italy
Murcia,-1.129922428,37.99216268,Tortonian,Western Mediterranean,Spain
Murdjadjo,-0.798898418,35.68692982,pre-evaporitic Messinian,Western Mediterranean,Algeria
Mussotto,8.017095836,44.71436718,pre-evaporitic Messinian,Po Plain-Northern Adriatic,Italy
Myra-1 core (Levant),33.80946417,32.03833488,pre-evaporitic Messinian,Eastern Mediterranean,offshore
Nabeul,10.7358551,36.45225585,Zanclean,Eastern Mediterranean,Tunisia
Narzole (Piedmont),7.870622402,44.59424149,Zanclean,Po Plain-Northern Adriatic,Italy
NE Morocco,-2.544343597,34.97524468,pre-evaporitic Messinian,Western Mediterranean,Morocco
Nerja (Malaga),-3.87296209,36.75667284,Zanclean,Western Mediterranean,Spain
Nesher (Haifa),35.04892276,32.76498326,Zanclean,Eastern Mediterranean,Israel
Nicosia (Enna_Sicily),14.3954151,37.74690277,Tortonian,Eastern Mediterranean,Italy
Nijar Basin,-2.206691265,36.96612096,pre-evaporitic Messinian,Western Mediterranean,Spain
Nizza Monferrato (Asti),8.358304392,44.7741419,Zanclean,Po Plain-Northern Adriatic,Italy
Nocella (Palermo),13.07365003,38.08489424,Zanclean,Eastern Mediterranean,Italy
North Arbaa,-4.085540785,34.97262566,Tortonian,Western Mediterranean,Morocco
North coast of Ibiza,1.518771094,39.1117678,Tortonian,Western Mediterranean,Spain
North of Souk el Khemis (Beni Ouarsous),-1.616755659,35.13816395,pre-evaporitic Messinian,Western Mediterranean,Algeria
Northern Italy,9.263573548,45.59523877,Tortonian,Po Plain-Northern Adriatic,Italy
Nugola,10.44411323,43.5794868,pre-evaporitic Messinian,Western Mediterranean,Italy
Ofaqim & Pattish Fort,34.63778853,31.30830578,pre-evaporitic Messinian,Eastern Mediterranean,Israel
Oran,-0.635047412,35.69997105,pre-evaporitic Messinian,Western Mediterranean,Algeria
Orciano (Pisa),10.51035699,43.494502,Zanclean,Western Mediterranean,Italy
Ortabag (Susuz Dag_Kasaba Basin),29.78703533,36.43219345,Tortonian,Eastern Mediterranean,Turkey
Ortatepe,28.77281181,37.3789525,Zanclean,Eastern Mediterranean,Turkey
Otranto Pietra Leccese,18.48523423,40.14444291,Tortonian,Eastern Mediterranean,Italy
Otrusevac (Samobora),15.49181844,45.74811944,Tortonian,Po Plain-Northern Adriatic,Croatia
Ouarsenis (Pont du Caid_Chelif Basin),1.616675075,35.86667079,Tortonian,Western Mediterranean,Algeria
Oued Akrech (Rabat),-5.703039488,35.55317662,Tortonian,Western Mediterranean,Morocco
Oued Bou Regreg (Rabat),-5.593176211,35.06906287,Tortonian,Western Mediterranean,Morocco
Oued Derdoussa,0.324726999,36.01851358,Zanclean,Western Mediterranean,Algeria
Oued Hamouziine (Taza_Guercif Basin),-3.390569685,34.21179839,Tortonian,Western Mediterranean,Morocco
Oued Kell (Sais Basin),-4.767015332,34.01088561,Tortonian,Western Mediterranean,Morocco
Oued Madhouma (Sais Basin),-4.931810247,33.83767814,Tortonian,Western Mediterranean,Morocco
Oued Medouar (Melilla),-2.971305977,35.29622873,pre-evaporitic Messinian,Western Mediterranean,Morocco
Oued Sidi Medioni (SE Cap Figalo),-1.191841023,35.56768226,pre-evaporitic Messinian,Western Mediterranean,Algeria
Oued Sidi Messaoud (Kebdana North),6.426744789,36.48110419,Tortonian,Western Mediterranean,Morocco
Oued Trifa (Boudinar Basin),-3.701019,35.107552,Zanclean,Western Mediterranean,Morocco
Oued Zitoune (Sais Basin),9.380306104,37.0494113,Tortonian,Western Mediterranean,Morocco
Oujda,-1.899925569,34.68329507,pre-evaporitic Messinian,Western Mediterranean,Morocco
Ouled Ben Adda Plateau (Ain Temouchent),-1.171512895,35.28704925,pre-evaporitic Messinian,Western Mediterranean,Algeria
Ouled Sidi Bou Azza (Ain Temouchent),-1.168766313,35.27864151,pre-evaporitic Messinian,Western Mediterranean,Algeria
P. Maiata (Sicily),13.4815676,37.28733999,Zanclean,Eastern Mediterranean,Italy
Pachiammos (Crete),25.80499559,35.10944313,Zanclean,Eastern Mediterranean,Greece
Pachino (Sicily),15.09128865,36.71531833,Tortonian,Eastern Mediterranean,Italy
Padron (Malaga),-5.129684206,36.45830087,Zanclean,Western Mediterranean,Spain
Palermo (Sicily),13.3651828,38.11567648,pre-evaporitic Messinian,Eastern Mediterranean,Italy
Palmi (Reggio_Calabria),15.84641482,38.35775129,pre-evaporitic Messinian,Eastern Mediterranean,Italy
Panagia (Gavdos),24.10085106,34.83999298,Tortonian,Eastern Mediterranean,Greece
Panasos (Crete),25.046389,35.198056,Tortonian,Eastern Mediterranean,Greece
Panasos 2 (Crete),24.98111756,35.13078962,Tortonian,Eastern Mediterranean,Greece
Pantano (Modena),10.51410161,44.47106378,Tortonian,Po Plain-Northern Adriatic,Italy
Papaglionti (Vibo Valentia_Calabria),16.01609207,38.6433578,Tortonian,Eastern Mediterranean,Italy
Papiol (Catalonia),2.010166787,41.43820197,Zanclean,Western Mediterranean,Spain
Parma,10.32762828,44.80158958,Tortonian,Po Plain-Northern Adriatic,Italy
Parque Antena (Estepona_Malaga),-5.063045002,36.45500149,Zanclean,Western Mediterranean,Spain
Partira (Crete),25.22566567,35.11832392,Tortonian,Eastern Mediterranean,Greece
Patella (Crete),24.92181331,35.20074063,Tortonian,Eastern Mediterranean,Greece
Pavigliana (Calabria),15.72116147,38.10790137,Zanclean,Eastern Mediterranean,Italy
Pecetto di Valenza,8.670371587,44.98850621,pre-evaporitic Messinian,Po Plain-Northern Adriatic,Italy
Penon de Almayate,4.118611,36.719444,Zanclean,Western Mediterranean,Spain
Perales (Sorbas Basin),-2.050799878,37.09203227,pre-evaporitic Messinian,Western Mediterranean,Spain
Pesio (Cuneo),7.888859969,44.46670234,Zanclean,Po Plain-Northern Adriatic,Italy
Petralia (Caltanisetta Basin_Sicily),14.099897,37.794697,pre-evaporitic Messinian,Eastern Mediterranean,Italy
Piacenza,9.69263877,45.05231798,Zanclean,Po Plain-Northern Adriatic,Italy
Piedmont,7.689316387,45.12504219,Zanclean,Po Plain-Northern Adriatic,Italy
Pietra di Bismantova (Castelnuovo dei Monti),10.41370388,44.42142801,Tortonian,Po Plain-Northern Adriatic,Italy
Pietrasecca,13.12478405,42.13475407,Tortonian,Western Mediterranean,Italy
Pino d'Asti (Piedmont),7.985561252,45.05858712,Zanclean,Po Plain-Northern Adriatic,Italy
Pisa,10.4013858,43.72287509,Zanclean,Western Mediterranean,Italy
Piskopiano (Crete),25.383056,35.333611,Zanclean,Eastern Mediterranean,Greece
Pissavacca (Valsugana),12.369778,45.747183,Tortonian,Po Plain-Northern Adriatic,Italy
Pissouri,32.667222,34.669167,Tortonian,Eastern Mediterranean,Cyprus
Pitsidia (Crete),24.78001373,35.01596753,Tortonian,Eastern Mediterranean,Greece
Plakiotissa (Crete),25.15336194,35.06191205,Tortonian,Eastern Mediterranean,Greece
Plananzia (Sardinia),8.952481501,39.93903938,Tortonian,Western Mediterranean,Italy
Podere delle Vopaie (Tuscany),11.38031748,43.51611935,Zanclean,Western Mediterranean,Italy
Podere Lucciolabella (Tuscany),11.755833,43.034333,Zanclean,Western Mediterranean,Italy
Poggio alle Mura (Siena),11.39775778,42.97954472,Zanclean,Western Mediterranean,Italy
Polis,32.42540528,35.03565792,Zanclean,Eastern Mediterranean,Cyprus
Pollenzo (Piedmont),7.895768213,44.68676449,pre-evaporitic Messinian,Po Plain-Northern Adriatic,Italy
Ponsano (Tuscany),10.98500997,43.36153132,Tortonian,Western Mediterranean,Italy
Pont de Saboune (Sebaa Chioukh),-1.35860548,35.15620669,pre-evaporitic Messinian,Western Mediterranean,Algeria
Ponte Ginori,10.74371117,43.33526643,pre-evaporitic Messinian,Western Mediterranean,Italy
Popogna (Livorno),10.33429253,43.52323138,pre-evaporitic Messinian,Western Mediterranean,Italy
Portacomaro d'Asti (Sabbie d'Asti_Piedmont),8.251464549,44.95694725,Zanclean,Po Plain-Northern Adriatic,Italy
Portinatx (Ibiza),1.518474482,39.11050882,Tortonian,Western Mediterranean,Spain
Portinaty (Ibiza),1.520448548,39.1102423,Tortonian,Western Mediterranean,Spain
Potamida (Crete),24.6988,35.471828,pre-evaporitic Messinian,Eastern Mediterranean,Greece
Potamos (Gavdos),24.0633173,34.85954221,Tortonian,Eastern Mediterranean,Greece
Priocca (Piedmont),8.062588953,44.78559439,Zanclean,Po Plain-Northern Adriatic,Italy
Profitis Ilias (Crete),25.10111278,35.20709923,Tortonian,Eastern Mediterranean,Greece
Psalida (Crete),24.95461517,35.0904734,Tortonian,Eastern Mediterranean,Greece
Puerto Lobo (Granada Basin),-3.533049073,37.23745134,Tortonian,Western Mediterranean,Spain
Pugna (Tuscany),11.36910746,43.30677903,Zanclean,Western Mediterranean,Italy
Purchena,-2.360344132,37.34726895,Tortonian,Western Mediterranean,Spain
Puyricard (Bouches du Rhone),5.369751869,43.59570236,Tortonian,Western Mediterranean,France
Quantara 1 well (Nile delta),30.25679823,30.8741223,Tortonian,Eastern Mediterranean,Egypt
Quarata (Livorno),11.83005052,43.49765664,pre-evaporitic Messinian,Western Mediterranean,Italy
Quercecchi (Grosseto_Tuscany),11.00979628,43.46055634,Zanclean,Western Mediterranean,Italy
Racalmuto (Sicily),13.73252966,37.40901697,pre-evaporitic Messinian,Eastern Mediterranean,Italy
Ragusa,14.72522245,36.92677913,pre-evaporitic Messinian,Eastern Mediterranean,Italy
Ras El Barr-1 well (Nile delta),31.85,31.666667,Zanclean,Eastern Mediterranean,Egypt
Ravin de la Vierge (Lower Chelif Basin),0.16028,36.009793,pre-evaporitic Messinian,Western Mediterranean,Algeria
Raz Al Ain (Chelif Basin),0.149808967,36.01465265,pre-evaporitic Messinian,Western Mediterranean,Algeria
Reggio Calabre,15.64751123,38.11053468,Tortonian,Eastern Mediterranean,Italy
Reggio Emilia,10.63036982,44.69916778,Zanclean,Po Plain-Northern Adriatic,Italy
Resuttano,14.02998479,37.67657218,pre-evaporitic Messinian,Eastern Mediterranean,Italy
Rhafnas (North Fes),-4.967519097,34.3714646,Tortonian,Western Mediterranean,Morocco
Rhone Basin,5.693148308,45.62487538,Tortonian,Western Mediterranean,Italy
Ribat Al Khayr (Meknes),-4.404917,33.807642,pre-evaporitic Messinian,Western Mediterranean,Morocco
Riera du Bonet,2.028737773,41.40418839,Zanclean,Western Mediterranean,Spain
Rio Chicamo,-0.991589634,38.26460897,Tortonian,Western Mediterranean,Italy
Rio di Bocca d'Asino (Piedmont),7.626405,44.596469,Tortonian,Po Plain-Northern Adriatic,Italy
Rio Guadalminar,5.017222,36.47,Zanclean,Western Mediterranean,Spain
Rio Mazzapiedi,7.685008029,45.01914726,pre-evaporitic Messinian,Po Plain-Northern Adriatic,Italy
Rio Torsero (Savona),8.210884598,44.09262207,Zanclean,Western Mediterranean,Italy
Riosto Bologna,11.3582212,44.37826274,Zanclean,Po Plain-Northern Adriatic,Italy
Roaix (Buisson_Rhone delta),5.01323836,44.24470012,Tortonian,Western Mediterranean,France
Rocca Limata (Sicily),13.93572933,37.10439892,Tortonian,Eastern Mediterranean,Italy
Roccello Jonica-Capo Spartivento,8.845711079,38.87817139,Zanclean,Western Mediterranean,Italy
Roddi,7.973135837,44.67917291,pre-evaporitic Messinian,Po Plain-Northern Adriatic,Italy
Rombiolo (Vibo Valentia),16.00324792,38.59734365,Tortonian,Eastern Mediterranean,Italy
Rome,12.50234407,41.90487579,Zanclean,Western Mediterranean,Italy
Rometta (Sicily),15.4143163,38.17128354,pre-evaporitic Messinian,Eastern Mediterranean,Italy
Rosignano (Livorno),10.47218439,43.40919662,pre-evaporitic Messinian,Western Mediterranean,Italy
Rosselo composite section (Sicily),13.20846148,38.12951759,Zanclean,Eastern Mediterranean,Italy
Ruffolo Val di Pugna (Siena),11.36915158,43.30691563,Zanclean,Western Mediterranean,Italy
S. Ninfa (Sicily),12.8781458,37.77190572,Tortonian,Eastern Mediterranean,Italy
Sahabi,14.93226572,32.02028268,pre-evaporitic Messinian,Eastern Mediterranean,Libya
Sahaouria (Lower Chelif Basin),-0.503748883,35.47591096,pre-evaporitic Messinian,Western Mediterranean,Algeria
Sahel,4.463544852,36.60040227,Zanclean,Western Mediterranean,Algeria
Saint Martin (Var),5.885761017,43.58851085,Zanclean,Western Mediterranean,France
Saint Michele en Chazine,3.875889348,43.68333613,Tortonian,Western Mediterranean,France
Saint Pantaleon les Vignes (Rhone delta),5.044736747,44.39767922,Tortonian,Western Mediterranean,France
Saint Sorlin (Isere_Rhone Basin),4.942258314,45.46748371,Tortonian,Western Mediterranean,France
Sais Basin,-4.969532525,33.92436322,Tortonian,Western Mediterranean,Morocco
Salaparuta,13.01032016,37.75845702,Zanclean,Eastern Mediterranean,Italy
Salbas (Adana Basin),35.166667,37,Tortonian,Eastern Mediterranean,Turkey
Salemi (Sicily),13.254722,37.801111,pre-evaporitic Messinian,Eastern Mediterranean,Italy
Salento,17.85243318,40.43294232,Tortonian,Eastern Mediterranean,Italy
Salmour (Cuneo),7.792144975,44.57826977,Zanclean,Po Plain-Northern Adriatic,Italy
San Anrea dei Bagni (Emilia Romagna),10.091232,44.720461,Zanclean,Po Plain-Northern Adriatic,Italy
San Bartolomeo (Cagliari_Sardinia),9.145458184,39.19636726,Tortonian,Western Mediterranean,Italy
San Cataldo (Lecce),18.30575725,40.38995964,Zanclean,Eastern Mediterranean,Italy
San Giacomo (Piedmont),8.648533265,44.70175217,Zanclean,Po Plain-Northern Adriatic,Italy
San Giovanni (Galilea),12.530556,43.863611,pre-evaporitic Messinian,Po Plain-Northern Adriatic,Italy
San Juan del Puerto Huelva,-5.895990279,37.03012097,Zanclean,Western Mediterranean,Spain
San Luca,7.737236001,45.03262226,Zanclean,Po Plain-Northern Adriatic,Italy
San Marino,12.45532256,43.94402587,pre-evaporitic Messinian,Po Plain-Northern Adriatic,San Marino
San Marzano (Asti),8.296867495,44.75281723,pre-evaporitic Messinian,Po Plain-Northern Adriatic,Italy
San Miguel de Salinas (Murcia),0.797222,37.990556,pre-evaporitic Messinian,Western Mediterranean,Spain
San Onofre (Catalonia),3.160710541,42.31607514,pre-evaporitic Messinian,Western Mediterranean,Spain
San Quirico d'Orcia (Tuscany),11.60514726,43.05821019,Zanclean,Western Mediterranean,Italy
San Ruffino,10.60996822,43.5619512,Zanclean,Western Mediterranean,Italy
San Todaro,16.20749948,38.3363309,Zanclean,Eastern Mediterranean,Italy
Sandal Mountain (Northern Erdemli),34.14310838,36.60663313,Tortonian,Eastern Mediterranean,Turkey
Sangonera La Verde (Murcia),-1.207158515,37.92878442,Tortonian,Western Mediterranean,Spain
Santa Domenica di Ricodi,15.86650135,38.62583504,Tortonian,Eastern Mediterranean,Italy
Santa Margarita (Mallorca),3.103411345,39.70194333,Tortonian,Western Mediterranean,Spain
Santa Maria (Modena),10.79472752,44.62991412,Tortonian,Po Plain-Northern Adriatic,Italy
Santa Pola (Alicante),-0.561783562,38.19676291,pre-evaporitic Messinian,Western Mediterranean,Spain
Sant'Agata (Piedmont),7.303655618,44.64427433,Tortonian,Po Plain-Northern Adriatic,Italy
Sant'Andrea Bagni,10.08792283,44.72362487,Zanclean,Po Plain-Northern Adriatic,Italy
Sant'Anna (Asti_Piedmont),8.298618145,44.86813511,Zanclean,Po Plain-Northern Adriatic,Italy
Santo Stefano di Camastra (Messina_Sicily),14.34993163,38.01350401,Tortonian,Eastern Mediterranean,Italy
Sardinia,9.022340615,40.12765907,Tortonian,Western Mediterranean,Italy
Sarialan,27.38979699,38.90047329,pre-evaporitic Messinian,Eastern Mediterranean,Turkey
Sarili,36.216667,37.116667,Tortonian,Eastern Mediterranean,Turkey
Sassel (Chelif Basin),-1.216969379,35.49219243,Zanclean,Western Mediterranean,Algeria
Sassogrosso (Livorno),10.4113637,43.4629707,Tortonian,Western Mediterranean,Italy
Savona (Liguria),8.464044841,44.29803235,Zanclean,Western Mediterranean,Italy
Scardilli (Sicily),14.544444,37.601111,pre-evaporitic Messinian,Eastern Mediterranean,Italy
Scicli (Sicily),14.704722,36.793056,Tortonian,Eastern Mediterranean,Italy
Sciolze (Piedmont),7.876072247,45.09519679,Tortonian,Po Plain-Northern Adriatic,Italy
Sdt Ain Amar,2.670617861,36.2218069,Tortonian,Western Mediterranean,Algeria
SE France,7.27152304,43.76645229,Zanclean,Western Mediterranean,France
SE Sicily,14.81654762,36.84539355,Tortonian,Eastern Mediterranean,Italy
Sebaa Chioukh (Tafna Basin),-1.379374241,35.14527898,pre-evaporitic Messinian,Western Mediterranean,Algeria
Semiramis,35.23876213,37.12183636,pre-evaporitic Messinian,Eastern Mediterranean,Turkey
Senigallia,13.21514926,43.71999669,pre-evaporitic Messinian,Po Plain-Northern Adriatic,Italy
Serrata (Lorca),-1.688605934,37.69613214,Tortonian,Western Mediterranean,Spain
Settime (Piedmont),8.111111,44.947222,Zanclean,Po Plain-Northern Adriatic,Italy
Sicily,13.95164706,37.65513718,Zanclean,Eastern Mediterranean,Italy
Sidi Abdelkader,2.80009758,36.45325317,Tortonian,Western Mediterranean,Algeria
Sidi Ali Ben Toumi,2.483360734,35.96928671,Tortonian,Western Mediterranean,Algeria
Sidi Bou Azza,5.931764648,36.59911256,pre-evaporitic Messinian,Western Mediterranean,Algeria
Sidi Bou Knadil (Lower Chelif Basin),1.352913868,36.10029961,pre-evaporitic Messinian,Western Mediterranean,Algeria
Sidi Brahim (Chelif Basin),2.558944189,36.01309385,Zanclean,Western Mediterranean,Algeria
Sidi Haj Youssef (Boudinar Basin),-4.996835311,35.18409139,pre-evaporitic Messinian,Western Mediterranean,Morocco
Sidi Hamadouche (Lower Chelif Basin),-0.549930938,35.30129841,pre-evaporitic Messinian,Western Mediterranean,Algeria
Sidi Mahdjoub (Lower Chelif Basin),2.72141159,36.16186479,pre-evaporitic Messinian,Western Mediterranean,Algeria
Sidi Mimoun (Kebdana Basin),0.382852237,35.04548887,pre-evaporitic Messinian,Western Mediterranean,Morocco
Sidi Safi,-1.312200732,35.28254464,pre-evaporitic Messinian,Western Mediterranean,Algeria
Siena,11.32970832,43.3186238,Zanclean,Western Mediterranean,Italy
Sig,-0.212517323,35.5288453,pre-evaporitic Messinian,Western Mediterranean,Algeria
Sinis (Sardinia),8.899287246,39.75460438,pre-evaporitic Messinian,Western Mediterranean,France
Siracusa,15.28720333,37.07571785,Tortonian,Eastern Mediterranean,Italy
Sirt Basin,16.09007176,31.2205043,Tortonian,Eastern Mediterranean,Libya
Sirte Basin,18.13061226,29.16722041,Tortonian,Eastern Mediterranean,Libya
Skanes (Crete),23.91183675,35.43184861,Tortonian,Eastern Mediterranean,Greece
Skineas (Kephallonia),20.39305813,38.24237488,Tortonian,Eastern Mediterranean,Greece
Skouna Basin,-4.593960732,34.59551712,Tortonian,Western Mediterranean,Morocco
Sogliano (Emilia Romagna),12.29894637,44.0035204,pre-evaporitic Messinian,Po Plain-Northern Adriatic,Italy
Sokara (Crete),25.10995145,35.05492014,Tortonian,Eastern Mediterranean,Greece
Son Amer (Mallorca),2.816212152,39.76059065,Tortonian,Western Mediterranean,Spain
Son Marroig (Mallorca),2.629095827,39.75133822,Tortonian,Western Mediterranean,Spain
Son Morello (Mallorca),3.218977576,39.65605432,Zanclean,Western Mediterranean,Spain
Son Salord Quarry (Menorca),3.827334091,40.0187267,Tortonian,Western Mediterranean,Spain
Sorbas Basin,-2.129182206,37.10014153,pre-evaporitic Messinian,Western Mediterranean,Spain
Souk el Khemis (Tafna),3.632693631,36.39051251,pre-evaporitic Messinian,Western Mediterranean,Algeria
South Mallorca,3.021555604,39.36421679,pre-evaporitic Messinian,Western Mediterranean,Spain
South Mesaoria,25.04266292,35.11541114,Zanclean,Eastern Mediterranean,Cyprus
South of Souk el Khemis (Beni Ouarsous),3.63664125,36.38742819,pre-evaporitic Messinian,Western Mediterranean,Algeria
South Peloponnesus,22.39650161,36.70321642,Zanclean,Eastern Mediterranean,Greece
South Spain,-4.362544413,36.87259656,Zanclean,Western Mediterranean,Spain
South-central Crete,24.77349789,35.11990439,Tortonian,Eastern Mediterranean,Greece
Spain,-1.889519697,38.08638214,pre-evaporitic Messinian,Western Mediterranean,Spain
Stavromenos II (Crete),24.59099639,35.38343436,Zanclean,Eastern Mediterranean,Greece
Stavros (Ierapetra Basin),25.75112671,35.06344474,Tortonian,Eastern Mediterranean,Greece
Stazzano (Piedmont),8.866939537,44.72296855,Tortonian,Po Plain-Northern Adriatic,Italy
Stilo (Calabria),16.46831791,38.47740866,Tortonian,Eastern Mediterranean,Italy
Stingeti quarry,14.880278,41.902222,Zanclean,Po Plain-Northern Adriatic,Italy
Stirone (Parma),9.956944,44.839722,Tortonian,Po Plain-Northern Adriatic,Italy
Stomios (Ierapetra Basin),25.67297107,35.01319889,Tortonian,Eastern Mediterranean,Greece
Strada degli Archi,11.79759643,42.23789894,pre-evaporitic Messinian,Western Mediterranean,Italy
Strada di Chieri (Piedmont),7.856332342,45.02477845,Zanclean,Po Plain-Northern Adriatic,Italy
Stylos,24.12416437,35.43287775,Tortonian,Eastern Mediterranean,Greece
Sulauze (Aix_Bouches du Rhone),4.995351558,43.55218163,Tortonian,Western Mediterranean,France
Sutasi (Hatay Graben),36.00990203,36.08165933,Zanclean,Eastern Mediterranean,Turkey
Tabiano Bagni (Parma),10.01976425,44.80567118,Zanclean,Po Plain-Northern Adriatic,Italy
Tabiano Terme,10.02569621,44.7916683,pre-evaporitic Messinian,Po Plain-Northern Adriatic,Italy
Tafaraoui (Lower Chelif Basin),-0.525728478,35.48836857,pre-evaporitic Messinian,Western Mediterranean,Algeria
Tafna Basin,-1.433852125,35.19207749,pre-evaporitic Messinian,Western Mediterranean,Algeria
Takanli (Mersin),34.02963609,36.76429984,Tortonian,Eastern Mediterranean,Turkey
Talilt (Boudinar Basin),3.523250915,36.63708793,pre-evaporitic Messinian,Western Mediterranean,Morocco
Tamouda (Tetouan Basin),-5.386562331,35.58311347,Zanclean,Western Mediterranean,Morocco
Tangenziale Est di Lecce,18.20492583,40.34614939,pre-evaporitic Messinian,Eastern Mediterranean,Italy
Taourit,-2.894940595,34.39895649,Tortonian,Western Mediterranean,Morocco
Tarragone E2 (Catalonia),1.243830406,41.13311492,pre-evaporitic Messinian,Western Mediterranean,Spain
Tassensalch (Boudinar Basin),-3.619802083,35.15433615,Zanclean,Western Mediterranean,Morocco
Taza (Geurcif Basin),-3.99763251,34.212445,Tortonian,Western Mediterranean,Morocco
Tazouta (South Fes),-4.980233775,34.00395697,pre-evaporitic Messinian,Western Mediterranean,Morocco
Tefeli (Crete),25.16312101,35.09280292,Tortonian,Eastern Mediterranean,Greece
Teffaline (Tetouan Basin),-5.365573375,35.57966002,Zanclean,Western Mediterranean,Morocco
Tela Akcha (Kert Basin),-3.45480399,34.98590799,pre-evaporitic Messinian,Western Mediterranean,Morocco
Telat (Segangane Basin),-3.009449085,35.15786463,pre-evaporitic Messinian,Western Mediterranean,Morocco
Teliturna (Hatay Graben),36.24524081,36.79143068,Zanclean,Eastern Mediterranean,Turkey
Tersannes (Rhone Valley),4.442253162,44.22598348,Tortonian,Western Mediterranean,France
Terziza (Lower Chelif Basin),1.43462468,36.11777389,pre-evaporitic Messinian,Western Mediterranean,Algeria
Tessala,-0.772816223,35.24682811,pre-evaporitic Messinian,Western Mediterranean,Algeria
Tetuan Basin,-5.362187333,35.58938855,Zanclean,Western Mediterranean,Morocco
Theus quarry (Lower Chelif Basin),1.43462468,36.11777389,pre-evaporitic Messinian,Western Mediterranean,Algeria
Timpana,26.132239,35.195,Tortonian,Eastern Mediterranean,Greece
Tit-n-Tazart (Kert Basin),-3.439697789,34.96002596,pre-evaporitic Messinian,Western Mediterranean,Morocco
Tokhni,33.32402143,34.78194806,Tortonian,Eastern Mediterranean,Cyprus
Torre d'en Penjat (Menorca),4.303892097,39.8594475,Zanclean,Western Mediterranean,Spain
Torrente Stirone),9.898413827,44.8067754,Zanclean,Po Plain-Northern Adriatic,Italy
Torsero (Savona),8.218451754,44.08560436,Zanclean,Western Mediterranean,Italy
Tortona (Piedmont),8.862672566,44.89547219,Tortonian,Po Plain-Northern Adriatic,Italy
Tortonese (Alessandria),8.777710426,44.89025497,Tortonian,Po Plain-Northern Adriatic,Italy
Tranout-er-Roum (Segangane Basin),-3.009449085,35.15786463,pre-evaporitic Messinian,Western Mediterranean,Morocco
Traras,-1.666666705,35.03220882,pre-evaporitic Messinian,Western Mediterranean,Algeria
Trave,13.564722,43.583611,Tortonian,Po Plain-Northern Adriatic,Italy
Tremiti islands,15.50380895,42.12018119,pre-evaporitic Messinian,Po Plain-Northern Adriatic,Italy
Trentino,11.12483769,46.07838382,Tortonian,Po Plain-Northern Adriatic,Italy
Tricase,18.35678638,39.93024099,pre-evaporitic Messinian,Eastern Mediterranean,Italy
Tripitos,26.13029559,35.19726059,Tortonian,Eastern Mediterranean,Greece
Tripoli,13.1728005,32.87500785,Tortonian,Eastern Mediterranean,Libya
Tsamaki (Ierapetra Basin),25.727207,35.013763,Tortonian,Eastern Mediterranean,Greece
Tunisia,10.83636298,35.4626758,pre-evaporitic Messinian,Eastern Mediterranean,Tunisia
Turkey,32.03116412,36.90246467,Tortonian,Eastern Mediterranean,Turkey
Tuscany,11.27962655,43.75650786,pre-evaporitic Messinian,Western Mediterranean,Italy
Tuvumannu (Sardinia),9.109486389,39.23387991,Tortonian,Western Mediterranean,Italy
Tzioua (Tafna Basin),-1.247179342,35.29298461,pre-evaporitic Messinian,Western Mediterranean,Algeria
Umbria,12.40985574,43.05060219,Tortonian,Western Mediterranean,Italy
Vagia,23.53196636,37.77008988,pre-evaporitic Messinian,Eastern Mediterranean,Greece
Vaison-la-Romaine (Rhone delta),5.075461007,44.24114302,Tortonian,Western Mediterranean,France
Valle dello Stilaro sinistra (Calabria),16.16816789,39.5612234,pre-evaporitic Messinian,Eastern Mediterranean,Italy
Valleandona (Asti_Piedmont),8.116322767,44.91246945,Zanclean,Po Plain-Northern Adriatic,Italy
Valmontasca (Asti_Piedmont),8.248572554,44.84910841,Zanclean,Po Plain-Northern Adriatic,Italy
Vardiana (Crete),23.68245983,35.4747208,Tortonian,Eastern Mediterranean,Greece
Vasiliki (Ierapetra Basin),25.80597383,35.08640766,Tortonian,Eastern Mediterranean,Greece
Vasiliki 1 (Ierapetra Basin),25.80423376,35.08815554,Tortonian,Eastern Mediterranean,Greece
Vasiliki 2 (Ierapetra Basin),25.80423376,35.08815554,Tortonian,Eastern Mediterranean,Greece
Vaticano Peninsula (Calabria),15.84585271,38.60013496,pre-evaporitic Messinian,Eastern Mediterranean,Italy
Vaucluse,5.144295432,44.02994147,Tortonian,Western Mediterranean,France
Vejer de la Frontera (Andalousia),-3.251824333,36.83062989,pre-evaporitic Messinian,Western Mediterranean,Spain
Velerin (Malaga),-5.111124738,36.51253573,Zanclean,Western Mediterranean,Spain
Venta del Ranchero,-1.781784871,38.46832759,Zanclean,Western Mediterranean,Spain
Ventimiglia,7.605783069,43.79174204,Zanclean,Western Mediterranean,Italy
Vera Basin,-1.899018588,37.2692788,Zanclean,Western Mediterranean,Spain
Verdalice,13.29557228,42.9975769,pre-evaporitic Messinian,Western Mediterranean,Italy
Verduno Metalgrande,7.929021442,44.66568931,pre-evaporitic Messinian,Po Plain-Northern Adriatic,Italy
Vernasca (Piacenza),9.831326867,44.79980161,Zanclean,Po Plain-Northern Adriatic,Italy
Vezza d'Alba (Cuneo),7.998004836,44.76010938,Zanclean,Po Plain-Northern Adriatic,Italy
Viale (Asti),8.049741218,45.00172195,Zanclean,Po Plain-Northern Adriatic,Italy
Vibo Valentia,16.09913696,38.67599649,Tortonian,Eastern Mediterranean,Italy
Viglotopi (Kavrochori),25.046429,35.310561,pre-evaporitic Messinian,Eastern Mediterranean,Greece
Vigoleno,9.901040487,44.81657357,Tortonian,Po Plain-Northern Adriatic,Italy
Villa Monti (Piedmont),9.287899953,46.00860262,Tortonian,Po Plain-Northern Adriatic,Italy
Villadoro (Sicily),14.26038587,37.69161191,Tortonian,Eastern Mediterranean,Italy
Villafranca Tirrena (Sicily),15.4329217,38.23536657,Zanclean,Eastern Mediterranean,Italy
Villalvernia (Piedmont),8.85573586,44.81751013,Zanclean,Po Plain-Northern Adriatic,Italy
Vinalopo (San Migues de Salinas Basin),-0.788642275,38.7559352,Tortonian,Western Mediterranean,Spain
Voliones (Siva),25.03760571,35.21205853,pre-evaporitic Messinian,Eastern Mediterranean,Greece
Volpedo (Piedmont),8.98384876,44.88930985,Zanclean,Po Plain-Northern Adriatic,Italy
Voulismata Ambelouzos,24.9330965,35.06672092,Tortonian,Eastern Mediterranean,Greece
Vourvoulitis (Crete),24.98140771,35.07935217,Tortonian,Eastern Mediterranean,Greece
Voutes (Crete),25.05745444,35.26666016,Zanclean,Eastern Mediterranean,Greece
Vrapce (Zagreb),15.70211971,45.7357324,Tortonian,Po Plain-Northern Adriatic,Croatia
Yazilitepe,30.6968,36.971918,Tortonian,Eastern Mediterranean,Cyprus
Zaccanopoli (Cessaniti),15.92799876,38.66424799,Tortonian,Eastern Mediterranean,Italy
Zeneta (San Migues de Salinas Basin),-0.99781141,38.01052341,pre-evaporitic Messinian,Western Mediterranean,Spain
Zinola (Savona),8.445268037,44.28492266,Zanclean,Western Mediterranean,Italy
Zungri Tropea (Calabria),15.98290009,38.65669118,Tortonian,Eastern Mediterranean,Italy
