locality,lon,lat,Age,region,Country,group.name
A,7.304167,39.195,Zanclean,Western Mediterranean,Spain,planktic_foraminifera
371 (Balearic basin),5.254167,37.931333,Zanclean,Western Mediterranean,offshore,nanoplankton
372 (Balearic basin),4.7965,41.031,pre-evaporitic Messinian,Western Mediterranean,offshore,nanoplankton
372 (Balearic basin),4.7965,41.031,Zanclean,Western Mediterranean,offshore,nanoplankton
374 (Ionian Basin),18.196333,35.847833,Zanclean,Eastern Mediterranean,offshore,nanoplankton
375 (Antalya Basin),30.759667,34.762333,pre-evaporitic Messinian,Eastern Mediterranean,offshore,nanoplankton
375 (Antalya Basin),30.759667,34.762333,Zanclean,Eastern Mediterranean,offshore,nanoplankton
375 (Antalya Basin),30.759667,34.762333,Tortonian,Eastern Mediterranean,offshore,nanoplankton
375 (Levantine Sea),30.759667,34.762333,Tortonian,Eastern Mediterranean,Cyprus,planktic_foraminifera
376 (Antalya Basin),31.8075,34.872,pre-evaporitic Messinian,Eastern Mediterranean,offshore,nanoplankton
376 (Antalya Basin),31.8075,34.872,Zanclean,Eastern Mediterranean,offshore,nanoplankton
376 (Florence Rise),31.8075,34.872,Zanclean,Eastern Mediterranean,Cyprus,ostracods
378 (Aegean Sea),25.116167,35.9445,Zanclean,Eastern Mediterranean,offshore,ostracods
378 (Aegean Sea),25.116167,35.9445,Zanclean,Eastern Mediterranean,offshore,nanoplankton
652A (Tyrrhenian Sea),13.052778,40.020278,Zanclean,Western Mediterranean,Italy,benthic_foraminifera
652A (Tyrrhenian Sea),13.052778,40.020278,Zanclean,Western Mediterranean,Italy,nanoplankton
653A (Tyrrhenian Sea),10.9775,40.012778,Zanclean,Western Mediterranean,offshore,nanoplankton
654A (Tyrrhenian Sea),10.612222,40.434444,Tortonian,Western Mediterranean,offshore,planktic_foraminifera
654A (Tyrrhenian Sea),10.612222,40.434444,pre-evaporitic Messinian,Western Mediterranean,offshore,planktic_foraminifera
654A (Tyrrhenian Sea),10.612222,40.434444,Zanclean,Western Mediterranean,offshore,nanoplankton
966 hole D,32.8,34.26,Zanclean,Eastern Mediterranean,offshore,nanoplankton
967 (Eratosthenes Sea Mount),32.716667,34.066667,Zanclean,Eastern Mediterranean,Cyprus,planktic_foraminifera
969 (Mediterranean Ridge),24.770833,33.888333,Zanclean,Eastern Mediterranean,offshore,nanoplankton
969 (Mediterranean Ridge),24.770833,33.888333,Zanclean,Eastern Mediterranean,offshore,planktic_foraminifera
969B (East Med.),24.882967,33.84115,Zanclean,Eastern Mediterranean,offshore,nanoplankton
974B (Tyrrhenian Sea),12.142,40.356,Zanclean,Western Mediterranean,offshore,nanoplankton
975B (Thyrrenian Sea),4.51,38.896667,Zanclean,Western Mediterranean,France,benthic_foraminifera
975B (Thyrrenian Sea),4.51,38.896667,Zanclean,Western Mediterranean,France,nanoplankton
976B (Alboran Sea),4.312717,36.205217,Tortonian,Western Mediterranean,offshore,nanoplankton
976B (Alboran Sea),4.312717,36.205217,Tortonian,Western Mediterranean,offshore,benthic_foraminifera
976B (Alboran Sea),4.312717,36.205217,pre-evaporitic Messinian,Western Mediterranean,offshore,benthic_foraminifera
976B (Alboran Sea),4.312717,36.205217,pre-evaporitic Messinian,Western Mediterranean,offshore,nanoplankton
976B (Alboran Sea),4.312717,36.205217,Zanclean,Western Mediterranean,offshore,nanoplankton
976B (Alboran Sea),4.312717,36.205217,Zanclean,Western Mediterranean,offshore,planktic_foraminifera
976E (Balearic Sea),4.3124,36.205383,Zanclean,Western Mediterranean,offshore,nanoplankton
977 (Alboran Sea),1.955317,36.031783,Zanclean,Western Mediterranean,offshore,nanoplankton
978A (Alboran Sea),2.057067,36.231117,pre-evaporitic Messinian,Western Mediterranean,offshore,nanoplankton
978A (Alboran Sea),2.057067,36.231117,Zanclean,Western Mediterranean,offshore,planktic_foraminifera
Abbeveratoio (Sicily),13.98940409,37.68900936,Zanclean,Eastern Mediterranean,Italy,planktic_foraminifera
Adana,35.330828,36.991419,pre-evaporitic Messinian,Eastern Mediterranean,Turkey,ostracods
Adana,35.330828,36.991419,Tortonian,Eastern Mediterranean,Turkey,ostracods
Adana 1,35.238056,37.074167,pre-evaporitic Messinian,Eastern Mediterranean,Turkey,ostracods
Adana 1,35.238056,37.074167,pre-evaporitic Messinian,Eastern Mediterranean,Turkey,nanoplankton
Adraktia (Crete),25.036169,35.149994,Tortonian,Eastern Mediterranean,Greece,gastropods
Aegina,23.246889,37.807967,Tortonian,Eastern Mediterranean,Greece,echinoids
Aegina,23.246889,37.807967,Zanclean,Eastern Mediterranean,Greece,fish
Afrata,23.767589,35.573731,Tortonian,Eastern Mediterranean,Greece,marine_mammals
Agia Triada (Messinia),21.937358,36.809303,Zanclean,Eastern Mediterranean,Greece,bivalves
Agia Triada (Messinia),21.937358,36.809303,Zanclean,Eastern Mediterranean,Greece,fish
Agia Triada (Messinia),21.937358,36.809303,Zanclean,Eastern Mediterranean,Greece,gastropods
Agia Triada (Messinia),21.937358,36.809303,Zanclean,Eastern Mediterranean,Greece,planktic_foraminifera
Agioi Anargyroi_Ai Lias (Crete),25.356669,35.233478,Tortonian,Eastern Mediterranean,Greece,gastropods
Agios Ioannis (Gavdos),24.084478,34.867747,Tortonian,Eastern Mediterranean,Greece,corals
Agios Ioannis (Gavdos),24.084478,34.867747,Tortonian,Eastern Mediterranean,Greece,planktic_foraminifera
Agios Kosmas,21.25019904,40.15217888,Tortonian,Eastern Mediterranean,Greece,ostracods
Agios Myron (Crete),25.0273056,35.2328889,pre-evaporitic Messinian,Eastern Mediterranean,Greece,fish
Agios Myron (Crete),25.0273056,35.2328889,pre-evaporitic Messinian,Eastern Mediterranean,Greece,planktic_foraminifera
Agios Sostis (Zakynthos),20.861911,37.714019,Tortonian,Eastern Mediterranean,Greece,dinocysts
Agios Sostis (Zakynthos),20.861911,37.714019,pre-evaporitic Messinian,Eastern Mediterranean,Greece,dinocysts
Agios Sostis (Zakynthos),20.861911,37.714019,Zanclean,Eastern Mediterranean,Greece,dinocysts
Agios Stefanos (Corfu),19.641683,39.753958,Zanclean,Eastern Mediterranean,Greece,planktic_foraminifera
Agios Tychon (Khalassa subbasin),33.142564,34.724272,Tortonian,Eastern Mediterranean,Greece,gastropods
Agios Vlassis (Crete),25.132472,35.255042,Zanclean,Eastern Mediterranean,Greece,planktic_foraminifera
Agua Amarga Basin (Almeria),1.934261,36.938247,pre-evaporitic Messinian,Western Mediterranean,Spain,corals
Ahermoumou_El Menzel_Arham Amellal,4.414689,33.820661,pre-evaporitic Messinian,Western Mediterranean,Morocco,corals
Ain Bou M'Saad (Taza_Guercif Basin),3.291667,34.181389,Tortonian,Western Mediterranean,Morocco,corals
Ain ed Dehane (Lower Chelif Basin),6.590836,36.335453,pre-evaporitic Messinian,Western Mediterranean,Algeria,bivalves
Ain ed Dehane (Lower Chelif Basin),6.590836,36.335453,pre-evaporitic Messinian,Western Mediterranean,Algeria,corals
Ain Lorna 1 (Sais Basin),-4.958074,33.934832,Tortonian,Western Mediterranean,Morocco,bivalves
Ain Lorna 2 (Sais Basin),-4.958074,33.934832,Tortonian,Western Mediterranean,Morocco,bivalves
Ain Temouchent,1.139281,35.299269,pre-evaporitic Messinian,Western Mediterranean,Algeria,corals
Ain Zitoun (Beni Ouarsous),7.015742,35.712992,pre-evaporitic Messinian,Western Mediterranean,Algeria,corals
Ain Zohra,3.523092,34.681908,Tortonian,Western Mediterranean,Morocco,corals
Ait Amar (Melilla Basin),-3.021431097,35.20219821,pre-evaporitic Messinian,Western Mediterranean,Morocco,bivalves
Ait Hossein (Segangane Basin),-3.00771109,35.15065366,pre-evaporitic Messinian,Western Mediterranean,Morocco,bivalves
Aksu,30.766639,37.088986,pre-evaporitic Messinian,Eastern Mediterranean,Turkey,corals
Aktepe (Hatay Graben),36.08597333,36.20008247,Zanclean,Eastern Mediterranean,Turkey,bivalves
Aktepe (Hatay Graben),36.08597333,36.20008247,Zanclean,Eastern Mediterranean,Turkey,gastropods
Al Khmus,14.2679,32.65095,Tortonian,Eastern Mediterranean,Libya,ostracods
Al Khmus,14.2679,32.65095,pre-evaporitic Messinian,Eastern Mediterranean,Libya,ostracods
Al Khmus,14.2679,32.65095,Zanclean,Eastern Mediterranean,Libya,sharks
Alba (Piedmont),8.035692,44.700914,Tortonian,Po Plain-Northern Adriatic,Italy,fish
Alba (Piedmont),8.035692,44.700914,Zanclean,Po Plain-Northern Adriatic,Italy,bivalves
Alba (Piedmont),8.035692,44.700914,Zanclean,Po Plain-Northern Adriatic,Italy,fish
Alba (Piedmont),8.035692,44.700914,Zanclean,Po Plain-Northern Adriatic,Italy,gastropods
Alba (Piedmont),8.035692,44.700914,Zanclean,Po Plain-Northern Adriatic,Italy,sharks
Albenga (Liguria),8.196731,44.044458,Tortonian,Western Mediterranean,Italy,corals
Albenga (Liguria),8.196731,44.044458,Zanclean,Western Mediterranean,Italy,gastropods
Alcala de Guadara (Sevilla),5.859722,37.339711,Zanclean,Western Mediterranean,Spain,marine_mammals
Algeria,3.062958,36.621428,pre-evaporitic Messinian,Western Mediterranean,Algeria,bryozoans
Algeria,3.062958,36.621428,pre-evaporitic Messinian,Western Mediterranean,Algeria,corals
Algeria,3.062958,36.621428,Tortonian,Western Mediterranean,Algeria,corals
Algiers,3.062958,36.621431,Zanclean,Western Mediterranean,Algeria,bryozoans
Alicante Basin,0.566917,38.367664,pre-evaporitic Messinian,Western Mediterranean,Spain,echinoids
Alicante Basin,0.566917,38.367664,pre-evaporitic Messinian,Western Mediterranean,Spain,ostracods
Alicante Basin,0.566917,38.367664,Tortonian,Western Mediterranean,Spain,echinoids
Alicante Basin,0.566917,38.367664,Tortonian,Western Mediterranean,Spain,ostracods
Alicante Basin,0.566917,38.367664,Tortonian,Western Mediterranean,Spain,sharks
Alicante Basin,0.566917,38.367664,Zanclean,Western Mediterranean,Spain,echinoids
Alicante Basin,0.566917,38.367664,Zanclean,Western Mediterranean,Spain,ostracods
Alicante Basin,0.566917,38.367664,Zanclean,Western Mediterranean,Spain,sharks
Almeria,2.483044,36.841817,pre-evaporitic Messinian,Western Mediterranean,Spain,corals
Almeria,2.483044,36.841817,pre-evaporitic Messinian,Western Mediterranean,Spain,echinoids
Almeria,2.483044,36.841817,Tortonian,Western Mediterranean,Spain,echinoids
Almeria,2.483044,36.841817,Zanclean,Western Mediterranean,Spain,echinoids
Almiri (Crete),24.333333,35.166667,Tortonian,Eastern Mediterranean,Greece,ostracods
Alt Emporda (Catalonia),3.034389,42.342333,Zanclean,Western Mediterranean,Spain,gastropods
Altavilla (Sicily),13.538628,38.038708,Zanclean,Eastern Mediterranean,Italy,echinoids
Amekrane (Melillia Basin),2.971922,35.271508,pre-evaporitic Messinian,Western Mediterranean,Morocco,bivalves
Andalousia,4.727753,37.544272,pre-evaporitic Messinian,Western Mediterranean,Spain,corals
Andalousia G1 (Alboran Sea),4.274919,36.778161,pre-evaporitic Messinian,Western Mediterranean,Spain,dinocysts
Andalousia G1 (Alboran Sea),4.274919,36.778161,Zanclean,Western Mediterranean,Spain,dinocysts
Ano Asites (Kavrochori),25.002528,35.193522,pre-evaporitic Messinian,Eastern Mediterranean,Greece,corals
Ano Moulia (Crete),24.995631,35.113122,pre-evaporitic Messinian,Eastern Mediterranean,Greece,ostracods
Antakia,36.191903,36.190361,Tortonian,Eastern Mediterranean,Turkey,ostracods
Antakia,36.191903,36.190361,pre-evaporitic Messinian,Eastern Mediterranean,Turkey,ostracods
Aphrodite_2 core (Levant Basin),34.008933,36.299703,pre-evaporitic Messinian,Eastern Mediterranean,offshore,nanoplankton
Apomarma (Crete),24.952375,35.113444,Tortonian,Eastern Mediterranean,Greece,marine_mammals
Apostoli (Crete),25.299619,35.219761,Tortonian,Eastern Mediterranean,Greece,ostracods
Apricena (Gargano_Apulia),15.462397,41.788225,Zanclean,Po Plain-Northern Adriatic,Italy,ostracods
Aquas Blancas Valley (Granada Basin),3.489583,37.179786,Tortonian,Western Mediterranean,Spain,corals
Arapali (T191 borehole),35.06241667,36.95510651,Zanclean,Eastern Mediterranean,Turkey,ostracods
Arapali (T191 borehole),35.06241667,36.95510651,Zanclean,Eastern Mediterranean,Turkey,planktic_foraminifera
Arbaa de Taourirt,3.832453,34.931758,pre-evaporitic Messinian,Western Mediterranean,Morocco,bivalves
Arbal,4.780867,36.562975,Tortonian,Western Mediterranean,Algeria,echinoids
Arbal,4.780867,36.562975,pre-evaporitic Messinian,Western Mediterranean,Algeria,echinoids
Arcille (Tuscany),11.285036,42.786717,Zanclean,Western Mediterranean,Italy,bivalves
Arcille (Tuscany),11.285036,42.786717,Zanclean,Western Mediterranean,Italy,marine_mammals
Arcos de la Frontera (Andalousia),5.811653,36.756006,pre-evaporitic Messinian,Western Mediterranean,Spain,dinocysts
Arenaria di Ponsano,10.984853,43.361506,Tortonian,Western Mediterranean,Italy,marine_mammals
Arham Amellal,4.335531,36.335033,pre-evaporitic Messinian,Western Mediterranean,Morocco,corals
Arham Amellal,4.335531,36.335033,Tortonian,Western Mediterranean,Morocco,corals
Arignano (Piedmont),7.90250312,45.03702213,Zanclean,Po Plain-Northern Adriatic,Italy,ostracods
Arkalies (Leukochori),23.76670958,35.23440853,Tortonian,Eastern Mediterranean,Greece,marine_mammals
Arnulfi (Piedmont),7.896667,44.625,pre-evaporitic Messinian,Po Plain-Northern Adriatic,Italy,nanoplankton
Arnulfi (Piedmont),7.896667,44.625,pre-evaporitic Messinian,Po Plain-Northern Adriatic,Italy,planktic_foraminifera
Asari (Crete),25.8668464,35.11810176,Tortonian,Eastern Mediterranean,Greece,gastropods
Asari (Crete),25.8668464,35.11810176,Tortonian,Eastern Mediterranean,Greece,scaphopod_chitons_cephalopods
Ashtart 1 well (Gulf of Gabes),10.80075619,34.20867176,pre-evaporitic Messinian,Eastern Mediterranean,Tunisia,ostracods
Ashtart 1 well (Gulf of Gabes),10.80075619,34.20867176,Tortonian,Eastern Mediterranean,Tunisia,ostracods
Ashtart 1 well (Gulf of Gabes),10.80075619,34.20867176,Zanclean,Eastern Mediterranean,Tunisia,ostracods
Asimio (Crete),25.09336967,35.04416468,Tortonian,Eastern Mediterranean,Greece,bivalves
Asimio (Crete),25.09336967,35.04416468,Tortonian,Eastern Mediterranean,Greece,gastropods
Asteri (Crete),24.59703042,35.3683263,Zanclean,Eastern Mediterranean,Greece,ostracods
Asti,8.214987299,44.90057843,Zanclean,Po Plain-Northern Adriatic,Italy,marine_mammals
Asti,8.214987299,44.90057843,Zanclean,Po Plain-Northern Adriatic,Italy,sharks
Auribeau (Var),5.467766607,43.83665101,Zanclean,Western Mediterranean,France,dinocysts
Avadan,35.09801913,37.03767288,Zanclean,Eastern Mediterranean,Turkey,planktic_foraminifera
Avadan,35.09801913,37.03767288,Zanclean,Eastern Mediterranean,Turkey,nanoplankton
Avadan 1,35.1001389,37.0308056,Zanclean,Eastern Mediterranean,Turkey,ostracods
Azla (Tetouan Basin),-5.250843732,35.54482512,Zanclean,Western Mediterranean,Morocco,bivalves
Azrou Zazirhine,-5.231834327,33.43479451,Tortonian,Western Mediterranean,Morocco,planktic_foraminifera
Bab Stout (Guercif Basin),-4.309972418,34.41030377,Tortonian,Western Mediterranean,Morocco,corals
Babatorum (Hatay Graben),36.2992897,36.0813694,pre-evaporitic Messinian,Eastern Mediterranean,Turkey,ostracods
Babatorum (Hatay Graben),36.2992897,36.0813694,Tortonian,Eastern Mediterranean,Turkey,ostracods
Babatorum (Hatay Graben),36.2992897,36.0813694,Zanclean,Eastern Mediterranean,Turkey,bivalves
Babatorum (Hatay Graben),36.2992897,36.0813694,Zanclean,Eastern Mediterranean,Turkey,gastropods
Bacedasco,9.906486094,44.84424314,Zanclean,Po Plain-Northern Adriatic,Italy,echinoids
Baeyayla,32.68425004,36.75470398,Tortonian,Eastern Mediterranean,Turkey,ostracods
Bagnasco (Sabbie d'Asti_Piedmont),8.026373561,44.99869456,Zanclean,Po Plain-Northern Adriatic,Italy,marine_mammals
Baix Llobregat (Catalonia),1.963879534,41.41016475,Zanclean,Western Mediterranean,Spain,gastropods
Baiz Ebro (Catalonia),0.568970716,40.83720202,Zanclean,Western Mediterranean,Spain,gastropods
Bajo Segura Basin,-0.828885761,38.06009105,pre-evaporitic Messinian,Western Mediterranean,Spain,planktic_foraminifera
Bajo Segura Basin,-0.828885761,38.06009105,Tortonian,Western Mediterranean,Spain,planktic_foraminifera
Bajo Segura Basin,-0.828885761,38.06009105,Zanclean,Western Mediterranean,Spain,planktic_foraminifera
Balearic Islands,2.734551124,39.35944575,pre-evaporitic Messinian,Western Mediterranean,Spain,corals
Balza di Rocca Limata (Sicily),13.9352036,37.1069445,Tortonian,Eastern Mediterranean,Italy,corals
Bandinelli (Siena),11.32048323,43.33882749,Zanclean,Western Mediterranean,Italy,bivalves
Bandinelli (Siena),11.32048323,43.33882749,Zanclean,Western Mediterranean,Italy,gastropods
Banengo (Piedmont),8.064669694,45.07085312,pre-evaporitic Messinian,Po Plain-Northern Adriatic,Italy,nanoplankton
Banengo (Piedmont),8.064669694,45.07085312,pre-evaporitic Messinian,Po Plain-Northern Adriatic,Italy,planktic_foraminifera
Banos,-3.795528329,38.3000293,Tortonian,Western Mediterranean,Spain,planktic_foraminifera
Barbossi (Var),6.634796312,43.45790381,Zanclean,Western Mediterranean,France,dinocysts
Barcelona,2.16855852,41.38731917,Zanclean,Western Mediterranean,Spain,gastropods
Bardaris (Gavdos),24.1,34.85,Tortonian,Eastern Mediterranean,Greece,corals
Barinas South (Murcia),-1.058081668,38.27312535,Tortonian,Western Mediterranean,Spain,corals
Baselice,14.97285149,41.39266294,Tortonian,Po Plain-Northern Adriatic,Italy,echinoids
Bas-Leyssin (Chambery_Isere_Rhone),5.868746796,45.64428116,Tortonian,Western Mediterranean,France,corals
Basse-Tafna,-1.436366065,35.19402817,pre-evaporitic Messinian,Western Mediterranean,Algeria,corals
Bassin de Cocuron (Rhone delta),5.438763583,43.77422657,Tortonian,Western Mediterranean,France,ostracods
Belangero (Sabbie d'Asti_Piedmont),8.197945652,44.84953976,Tortonian,Po Plain-Northern Adriatic,Italy,marine_mammals
Benastare (Calabria),16.13948243,38.18364797,Tortonian,Eastern Mediterranean,Italy,corals
Benastare (Calabria),16.13948243,38.18364797,Tortonian,Eastern Mediterranean,Italy,ostracods
Beni Bou Yakoub (Boudinar Basin),-3.66744295,35.1322593,pre-evaporitic Messinian,Western Mediterranean,Morocco,bivalves
Beni Bou Yakoub (Boudinar Basin),-3.66744295,35.1322593,Tortonian,Western Mediterranean,Morocco,bivalves
Beni Ouarsous,-1.556971407,35.08031737,pre-evaporitic Messinian,Western Mediterranean,Algeria,bivalves
Beni Ouarsous,-1.556971407,35.08031737,pre-evaporitic Messinian,Western Mediterranean,Algeria,corals
Beni Saf,-1.377041074,35.28998968,pre-evaporitic Messinian,Western Mediterranean,Algeria,corals
Benmoussa,-5.001792,33.983867,Tortonian,Western Mediterranean,France,corals
Berghut (Kert Basin),-3.454804,34.962277,pre-evaporitic Messinian,Western Mediterranean,Morocco,bivalves
Biglini (Cuneo_Piedmont),7.980481063,44.7045184,pre-evaporitic Messinian,Po Plain-Northern Adriatic,Italy,gastropods
Bir Tam Tam (South Fes),-4.644538148,33.9812537,pre-evaporitic Messinian,Western Mediterranean,Morocco,corals
Bizcornil (Malaga),-5.088156905,36.4566692,Zanclean,Western Mediterranean,Spain,bivalves
Bled es Safa (Tafna Basin),-1.446342495,35.1943451,pre-evaporitic Messinian,Western Mediterranean,Algeria,bivalves
Bled Medroum (Tlemcen),-1.31620947,34.8825957,pre-evaporitic Messinian,Western Mediterranean,Algeria,gastropods
Bled Sidi Bou Knadil (Lower Chelif Basin),0.165516,36.026508,pre-evaporitic Messinian,Western Mediterranean,Algeria,bivalves
Bo (Gavdos),24.08482182,34.84636588,Tortonian,Eastern Mediterranean,Greece,corals
Bo (Gavdos),24.08482182,34.84636588,Tortonian,Eastern Mediterranean,Greece,planktic_foraminifera
Bocca d'Asino (South Tortona),8.867995,44.880885,Tortonian,Po Plain-Northern Adriatic,Italy,corals
Bocca d'Asino (South Tortona),8.867995,44.880885,Tortonian,Po Plain-Northern Adriatic,Italy,scaphopod_chitons_cephalopods
Bologna,11.35041512,44.49182978,Tortonian,Po Plain-Northern Adriatic,Italy,corals
Bonaria (Cagliari_Sardinia),9.122995397,39.20992654,Tortonian,Western Mediterranean,Italy,marine_mammals
Bordighera (Liguria),7.672216718,43.78071006,Zanclean,Western Mediterranean,Italy,gastropods
Bordighera (Liguria),7.672216718,43.78071006,Zanclean,Western Mediterranean,Italy,ostracods
Borelli (Moncucco Torinese_Piedmont),7.938559158,45.06427547,pre-evaporitic Messinian,Po Plain-Northern Adriatic,Italy,bivalves
Borelli (Moncucco Torinese_Piedmont),7.938559158,45.06427547,pre-evaporitic Messinian,Po Plain-Northern Adriatic,Italy,fish
Borelli (Moncucco Torinese_Piedmont),7.938559158,45.06427547,pre-evaporitic Messinian,Po Plain-Northern Adriatic,Italy,gastropods
Borelli (Moncucco Torinese_Piedmont),7.938559158,45.06427547,pre-evaporitic Messinian,Po Plain-Northern Adriatic,Italy,scaphopod_chitons_cephalopods
Borelli (Moncucco Torinese_Piedmont),7.938559158,45.06427547,Tortonian,Po Plain-Northern Adriatic,Italy,gastropods
Borzoli (Genova),8.886630484,44.4355256,Zanclean,Western Mediterranean,Italy,bivalves
Borzoli (Genova),8.886630484,44.4355256,Zanclean,Western Mediterranean,Italy,gastropods
Borzoli (Genova),8.886630484,44.4355256,Zanclean,Western Mediterranean,Italy,marine_mammals
Botro Rosso (Monti Livornesi_Tuscany),10.4164434,43.52096955,pre-evaporitic Messinian,Western Mediterranean,Italy,fish
Bou Djebaa (Ain Oumata),-0.600000035,35.33343752,pre-evaporitic Messinian,Western Mediterranean,Algeria,corals
Bou Meriem (Tazouta_South Fes),-4.605512721,33.71666589,pre-evaporitic Messinian,Western Mediterranean,Morocco,corals
Bou Zadjar (Western Plateau),-1.142907547,35.58192387,pre-evaporitic Messinian,Western Mediterranean,Algeria,corals
Boudinar Basin,-3.629329517,35.1524405,pre-evaporitic Messinian,Western Mediterranean,Morocco,bivalves
Boudinar Basin,-3.629329517,35.1524405,pre-evaporitic Messinian,Western Mediterranean,Morocco,corals
Boudinar Basin,-3.629329517,35.1524405,Zanclean,Western Mediterranean,Morocco,nanoplankton
Bougaz-1 well (NE Nile delta),31.85,32.8,Zanclean,Eastern Mediterranean,Egypt,nanoplankton
Boughioiul (South Fes),2.848344401,35.70424708,pre-evaporitic Messinian,Western Mediterranean,Morocco,corals
Bouhamza (Segangane Basin),4.690734052,36.44682269,pre-evaporitic Messinian,Western Mediterranean,Morocco,bivalves
Boujarah (Tetouan Basin),-5.321296347,35.57928506,Zanclean,Western Mediterranean,Morocco,bivalves
Bour Yahor (Lower Chelif Basin),0.165516,36.026508,pre-evaporitic Messinian,Western Mediterranean,Algeria,bivalves
Bra Cuneo,7.854894934,44.6924485,Zanclean,Po Plain-Northern Adriatic,Italy,echinoids
Bra Cuneo,7.854894934,44.6924485,Zanclean,Po Plain-Northern Adriatic,Italy,marine_mammals
Breolungi (Piedmont),7.792419996,44.42980917,Zanclean,Po Plain-Northern Adriatic,Italy,bivalves
Breolungi (Piedmont),7.792419996,44.42980917,Zanclean,Po Plain-Northern Adriatic,Italy,gastropods
Briatico,16.03270616,38.72505805,Tortonian,Eastern Mediterranean,Italy,echinoids
Briatico,16.03270616,38.72505805,Tortonian,Eastern Mediterranean,Italy,marine_mammals
Bric del Dente la Morra,8.675808884,44.48196217,pre-evaporitic Messinian,Western Mediterranean,Italy,fish
Briccone Sabbie d'Asti (Piedmont),8.17864,44.898334,Zanclean,Po Plain-Northern Adriatic,Italy,marine_mammals
Brisighella,11.76900702,44.22178287,pre-evaporitic Messinian,Po Plain-Northern Adriatic,Italy,fish
Bussana (Liguria),7.838478203,43.8236699,Zanclean,Western Mediterranean,Italy,gastropods
Butano Elche,-0.723242,38.255476,Tortonian,Western Mediterranean,Spain,marine_mammals
Buyukdere (Hatay Graben),36.04142543,36.5260622,Zanclean,Eastern Mediterranean,Turkey,bivalves
Cabrieres (Rhone delta),4.468332703,43.90286679,Tortonian,Western Mediterranean,France,ostracods
Cabrieres d'Aigues (Vaucluse_Rhone Basin),5.497495308,43.78467786,Tortonian,Western Mediterranean,France,corals
Cacchiamo (Sicily),14.23132646,37.6827936,Tortonian,Eastern Mediterranean,Italy,corals
Caccuri Cosenza (Calabria),16.77484426,39.2284089,Tortonian,Eastern Mediterranean,Italy,marine_mammals
Cadirlitepe,30.828771,37.160516,Zanclean,Eastern Mediterranean,Turkey,planktic_foraminifera
Cagliari (Sardinia),9.122783102,39.22449589,pre-evaporitic Messinian,Western Mediterranean,Italy,echinoids
Cagliari (Sardinia),9.122783102,39.22449589,Tortonian,Western Mediterranean,Italy,echinoids
Cagnes sur Mer (La Combe Quarry_Var),7.148975383,43.66372135,Zanclean,Western Mediterranean,France,dinocysts
Cala Pisana (Lampedusa),12.62379763,35.50423761,Tortonian,Eastern Mediterranean,Italy,corals
Cala Portals (Mallorca),2.57716384,39.53122932,Tortonian,Western Mediterranean,Spain,sharks
Calabria,16.040039,38.654897,pre-evaporitic Messinian,Eastern Mediterranean,Italy,corals
Calabria,16.040039,38.654897,pre-evaporitic Messinian,Eastern Mediterranean,Italy,marine_mammals
Calatafimi (Trapani_Sicily),12.86354222,37.91421166,pre-evaporitic Messinian,Eastern Mediterranean,Italy,corals
Calatafimi (Trapani_Sicily),12.86354222,37.91421166,Tortonian,Eastern Mediterranean,Italy,corals
Calisese (Forli),12.30147601,44.1018875,Tortonian,Po Plain-Northern Adriatic,Italy,ostracods
Calliano,8.255121504,45.0069955,Zanclean,Po Plain-Northern Adriatic,Italy,planktic_foraminifera
Callonges-Serre (Cadenet_Rhone delta),5.298081645,44.08611779,Tortonian,Western Mediterranean,France,ostracods
Ca-Lunga (Sabbie d'Asti_Piedmont),8.17864,44.898334,Zanclean,Po Plain-Northern Adriatic,Italy,marine_mammals
Camerano Csasco (Sabbie d'Asti_Piedmont),8.09067297,44.98768343,Zanclean,Po Plain-Northern Adriatic,Italy,marine_mammals
Camigliano (Grosseto_Tuscany),11.39921242,43.00724087,Zanclean,Western Mediterranean,Italy,bivalves
Camigliano (Grosseto_Tuscany),11.39921242,43.00724087,Zanclean,Western Mediterranean,Italy,gastropods
Camigliano (Grosseto_Tuscany),11.39921242,43.00724087,Zanclean,Western Mediterranean,Italy,marine_mammals
Camino Tondo (Grosseto_Tuscany),11.157011,42.760824,Zanclean,Western Mediterranean,Italy,bivalves
Camino Tondo (Grosseto_Tuscany),11.157011,42.760824,Zanclean,Western Mediterranean,Italy,gastropods
Campagnatico (Tuscany),11.27388015,42.88373711,Zanclean,Western Mediterranean,Italy,marine_mammals
Campagnatico (Tuscany),11.27388015,42.88373711,Zanclean,Western Mediterranean,Italy,sharks
Campofelice (Palermo),13.3735987,38.15322392,pre-evaporitic Messinian,Eastern Mediterranean,Italy,bivalves
Campofelice (Palermo),13.3735987,38.15322392,pre-evaporitic Messinian,Eastern Mediterranean,Italy,gastropods
Camporosso,7.62882573,43.81394533,Tortonian,Western Mediterranean,Italy,ostracods
Campos del Rio Murcia,-1.352965552,38.04078624,pre-evaporitic Messinian,Western Mediterranean,Spain,fish
Campos del Rio Murcia,-1.352965552,38.04078624,Tortonian,Western Mediterranean,Spain,fish
Ca'n March (Catalonia),2.952829769,42.14169212,Tortonian,Western Mediterranean,Spain,sharks
Canada Brusca (Aguilas),-1.58296872,37.41181363,Zanclean,Western Mediterranean,Spain,bivalves
Canal (Bajo Segura Basin),-0.662549,38.069458,Zanclean,Western Mediterranean,Spain,benthic_foraminifera
Cap des Trois Fourches (Melilla),-2.99356822,35.43506907,pre-evaporitic Messinian,Western Mediterranean,Morocco,corals
Cap Figalo,-1.196025305,35.57249918,pre-evaporitic Messinian,Western Mediterranean,Algeria,bivalves
Cap Figalo,-1.196025305,35.57249918,pre-evaporitic Messinian,Western Mediterranean,Algeria,corals
Capo di Fiume (Porrara),15.04087071,40.44978375,pre-evaporitic Messinian,Western Mediterranean,Italy,fish
Capo Ognina (Sicily),15.26666667,36.96656296,Tortonian,Eastern Mediterranean,Italy,corals
Capo Rossello (Sicily),13.45020358,37.29517893,Zanclean,Eastern Mediterranean,Italy,benthic_foraminifera
Capo Rossello (Sicily),13.45020358,37.29517893,Zanclean,Eastern Mediterranean,Italy,dinocysts
Capo Rossello (Sicily),13.45020358,37.29517893,Zanclean,Eastern Mediterranean,Italy,nanoplankton
Capo Rossello (Sicily),13.45020358,37.29517893,Zanclean,Eastern Mediterranean,Italy,ostracods
Capo Rossello (Sicily),13.45020358,37.29517893,Zanclean,Eastern Mediterranean,Italy,planktic_foraminifera
"Capo Rossello, log 41 (Sicily)",13.463869,37.295711,pre-evaporitic Messinian,Eastern Mediterranean,Italy,dinocysts
"Capo Rossello, log 41 (Sicily)",13.463869,37.295711,Zanclean,Eastern Mediterranean,Italy,dinocysts
Capo San Marco (Sardinia),8.435954999,39.86262995,pre-evaporitic Messinian,Western Mediterranean,Italy,dinocysts
Capo San Marco (Sardinia),8.435954999,39.86262995,pre-evaporitic Messinian,Western Mediterranean,Italy,nanoplankton
Capo San Marco (Sardinia),8.435954999,39.86262995,Tortonian,Western Mediterranean,Italy,bivalves
Capo San Marco (Sardinia),8.435954999,39.86262995,Tortonian,Western Mediterranean,Italy,dinocysts
Capo San Marco (Sardinia),8.435954999,39.86262995,Tortonian,Western Mediterranean,Italy,echinoids
Capo San Marco (Sardinia),8.435954999,39.86262995,Tortonian,Western Mediterranean,Italy,gastropods
Capo San Marco (Sardinia),8.435954999,39.86262995,Tortonian,Western Mediterranean,Italy,nanoplankton
Capo San Marco (Sardinia),8.435954999,39.86262995,Tortonian,Western Mediterranean,Italy,ostracods
Capo San Marco (Sardinia),8.435954999,39.86262995,Zanclean,Western Mediterranean,Italy,nanoplankton
Capodarso (Sicily),14.14555848,37.49512848,pre-evaporitic Messinian,Eastern Mediterranean,Italy,dinocysts
Capodarso (Sicily),14.14555848,37.49512848,Tortonian,Eastern Mediterranean,Italy,dinocysts
Carafa del Bianco,16.08759469,38.09214915,Zanclean,Eastern Mediterranean,Italy,ostracods
Carboneras,-1.891980658,36.99906307,pre-evaporitic Messinian,Western Mediterranean,Spain,corals
Caria Vibo Valentia (Calabria),15.90621072,38.646316,Tortonian,Eastern Mediterranean,Italy,marine_mammals
Carianne (Vaucluse_Rhone delta),4.934946232,44.23347138,Tortonian,Western Mediterranean,France,ostracods
Cariatiz,-2.087810208,37.14532134,pre-evaporitic Messinian,Western Mediterranean,Spain,planktic_foraminifera
Carmona (Andalousia),-5.638966172,37.45488301,pre-evaporitic Messinian,Western Mediterranean,Spain,dinocysts
Carmona (Andalousia),-5.638966172,37.45488301,Tortonian,Western Mediterranean,Spain,dinocysts
Carnot,7.016431864,43.56269342,pre-evaporitic Messinian,Western Mediterranean,Algeria,ostracods
Carriatiz (Sorbas),-2.087810208,37.14532134,pre-evaporitic Messinian,Western Mediterranean,Spain,corals
Casa Caforno (Livorno),10.331635,43.54602,Tortonian,Western Mediterranean,Italy,corals
Casa Gessi (Emilia Romagna),12.37950564,43.97564413,pre-evaporitic Messinian,Po Plain-Northern Adriatic,Italy,bivalves
Casa Gessi (Emilia Romagna),12.37950564,43.97564413,pre-evaporitic Messinian,Po Plain-Northern Adriatic,Italy,gastropods
Casa Gessi (Emilia Romagna),12.37950564,43.97564413,pre-evaporitic Messinian,Po Plain-Northern Adriatic,Italy,ostracods
Casa Gessi (Emilia Romagna),12.37950564,43.97564413,pre-evaporitic Messinian,Po Plain-Northern Adriatic,Italy,scaphopod_chitons_cephalopods
Casa Pestavecchia,11.217923,43.670812,pre-evaporitic Messinian,Po Plain-Northern Adriatic,Italy,ostracods
Casa Villa (Piacenza),9.725801372,44.7806477,Tortonian,Po Plain-Northern Adriatic,Italy,gastropods
Casale Monferrato (Asti),8.333332245,44.8332054,Zanclean,Po Plain-Northern Adriatic,Italy,marine_mammals
Case il Poggio (Val di Pugna_Siena),11.34739,43.324001,Zanclean,Western Mediterranean,Italy,marine_mammals
Case Pelacani (Sicily),14.190065,37.719599,Tortonian,Eastern Mediterranean,Italy,planktic_foraminifera
Castelcebro,8.141794101,45.03293173,Zanclean,Po Plain-Northern Adriatic,Italy,planktic_foraminifera
Castellarano,10.73299147,44.51333854,Zanclean,Po Plain-Northern Adriatic,Italy,echinoids
Castelletto d'Orba (Alessandria),8.705635584,44.68437119,pre-evaporitic Messinian,Po Plain-Northern Adriatic,Italy,gastropods
Castelnuovo nei Monti (Reggio Emilia),10.40063613,44.43386956,Tortonian,Po Plain-Northern Adriatic,Italy,corals
Castlnau (Montpellier),3.898208978,43.63386614,Zanclean,Western Mediterranean,Spain,marine_mammals
Castrocaro,11.94768901,44.17059822,Zanclean,Po Plain-Northern Adriatic,Italy,echinoids
Catanzaro,16.58795616,38.91004955,Tortonian,Eastern Mediterranean,Italy,marine_mammals
Cava Cisterna (Cavallino),18.18937935,40.31665847,Tortonian,Western Mediterranean,Italy,marine_mammals
Cava Gentile (Vibo Valentia),16.093258,38.677807,Tortonian,Eastern Mediterranean,Italy,marine_mammals
Cava Macello (Lecce),18.202962,40.350206,pre-evaporitic Messinian,Eastern Mediterranean,Italy,ostracods
Cava Macello (Lecce),18.202962,40.350206,Tortonian,Eastern Mediterranean,Italy,ostracods
Cava Serredi (Tuscany),10.4575,43.493056,Zanclean,Western Mediterranean,Italy,dinocysts
Cava Serredi (Tuscany),10.4575,43.493056,Zanclean,Western Mediterranean,Italy,nanoplankton
Cava Serredi (Tuscany),10.4575,43.493056,Zanclean,Western Mediterranean,Italy,planktic_foraminifera
Cava Serredi (Tuscany),10.4575,43.493056,Zanclean,Western Mediterranean,Italy,sharks
Cejo de los Enamorados (Lorca),-1.711533018,37.67714591,pre-evaporitic Messinian,Western Mediterranean,Spain,corals
Central Crete,25.14212115,35.33729409,Tortonian,Eastern Mediterranean,Greece,corals
Central Crete,25.14212115,35.33729409,Tortonian,Eastern Mediterranean,Greece,scaphopod_chitons_cephalopods
Ceriale (Savona),8.231572374,44.0968177,Zanclean,Western Mediterranean,Italy,gastropods
Cerro de San Anton,-4.359077773,36.74546028,Zanclean,Western Mediterranean,Spain,ostracods
Cerro Mandras (Sorbas Basin),-2.126134,37.098512,pre-evaporitic Messinian,Western Mediterranean,Spain,bivalves
Cessaniti,16.02619506,38.66321062,Tortonian,Eastern Mediterranean,Italy,bivalves
Cessaniti,16.02619506,38.66321062,Tortonian,Eastern Mediterranean,Italy,echinoids
Cessaniti,16.02619506,38.66321062,Tortonian,Eastern Mediterranean,Italy,gastropods
Cessaniti,16.02619506,38.66321062,Tortonian,Eastern Mediterranean,Italy,marine_mammals
Cessaniti,16.02619506,38.66321062,Tortonian,Eastern Mediterranean,Italy,sharks
Chania (Crete),24.0178734,35.51455258,Tortonian,Eastern Mediterranean,Greece,echinoids
Chania (Crete),24.0178734,35.51455258,Tortonian,Eastern Mediterranean,Greece,fish
Charf el Akab,-4.528894,34.975688,pre-evaporitic Messinian,Western Mediterranean,Morocco,bivalves
Charf el Akab,-4.528894,34.975688,Tortonian,Western Mediterranean,Morocco,bivalves
Charouit (Kedbana),-1.485863,35.27162,pre-evaporitic Messinian,Western Mediterranean,Algeria,corals
Chelif Basin,1.35288336,36.17300912,Tortonian,Western Mediterranean,Algeria,corals
Cherasco (Cuneo),7.858247909,44.64725729,Zanclean,Po Plain-Northern Adriatic,Italy,gastropods
Cheurfa,7.55427323,36.72170685,pre-evaporitic Messinian,Western Mediterranean,Algeria,corals
Chianciano Terme (Siena),11.81489776,43.04481588,Zanclean,Western Mediterranean,Italy,marine_mammals
Chicamo River (Fortuna Basin),-0.992748,38.260768,pre-evaporitic Messinian,Western Mediterranean,Spain,fish
Chieri (Torino),7.827231536,45.00910222,Tortonian,Po Plain-Northern Adriatic,Italy,corals
Chimilin (Chambery_Isere_Rhone),5.600538056,45.576788,Tortonian,Western Mediterranean,France,corals
Chomatolakkos (Crete),25.76821779,35.01800733,Tortonian,Eastern Mediterranean,Greece,gastropods
Ciolo (Salento),18.38551208,39.84412422,pre-evaporitic Messinian,Eastern Mediterranean,Italy,corals
Cisterna Quarry (Pietra Leccese),18.30029138,40.15304884,Tortonian,Eastern Mediterranean,Italy,marine_mammals
Citadelle Montpellier,3.884921483,43.61157581,Zanclean,Western Mediterranean,France,marine_mammals
Ciuciano (Siena),11.030421,43.42663155,Zanclean,Western Mediterranean,Italy,gastropods
Coalba (Valsugana),12.369434,45.746719,Tortonian,Po Plain-Northern Adriatic,Italy,bivalves
Coalba (Valsugana),12.369434,45.746719,Tortonian,Po Plain-Northern Adriatic,Italy,gastropods
Cobatillas,-1.07733019,38.05595046,Tortonian,Western Mediterranean,Spain,fish
Colli Torinesi,7.626168,45.145694,Tortonian,Po Plain-Northern Adriatic,Italy,gastropods
Colline di Montiglio,8.09839061,45.06451519,Zanclean,Po Plain-Northern Adriatic,Italy,marine_mammals
Columbares,-1.022353656,37.92507042,pre-evaporitic Messinian,Western Mediterranean,Spain,fish
Com (Antakia),36.2,32.033333,Tortonian,Eastern Mediterranean,Turkey,ostracods
Comtat (Vaucluse_Rhone),4.800143307,43.94832933,Tortonian,Western Mediterranean,France,corals
Conidoni,16.03700394,38.70435664,Tortonian,Eastern Mediterranean,Italy,echinoids
Contrada Bessima (Sicily),14.140888,37.458343,pre-evaporitic Messinian,Eastern Mediterranean,Italy,fish
Cortandone (Sabbir d'Asti_Piedmont),8.059678799,44.95791724,Zanclean,Po Plain-Northern Adriatic,Italy,marine_mammals
Cortijo Ruil,-2.212821,36.954734,pre-evaporitic Messinian,Western Mediterranean,Spain,fish
Corvera (San Migues de Salinas Basin),-1.158046023,37.830972,pre-evaporitic Messinian,Western Mediterranean,Spain,corals
Cozzo San Pantaleo,9.467753604,41.04609173,pre-evaporitic Messinian,Western Mediterranean,Italy,ostracods
Cozzo tunisino,14.002222,37.663611,pre-evaporitic Messinian,Eastern Mediterranean,Italy,ostracods
Crescentino (Vercelli_Piedmont),8.102660891,45.19189786,Zanclean,Po Plain-Northern Adriatic,Italy,ostracods
Crete,24.80635239,35.2360624,pre-evaporitic Messinian,Eastern Mediterranean,Greece,bivalves
Crete,24.80635239,35.2360624,pre-evaporitic Messinian,Eastern Mediterranean,Greece,bryozoans
Crete,24.80635239,35.2360624,pre-evaporitic Messinian,Eastern Mediterranean,Greece,corals
Crete,24.80635239,35.2360624,Tortonian,Eastern Mediterranean,Greece,bryozoans
Crete,24.80635239,35.2360624,Tortonian,Eastern Mediterranean,Greece,corals
Crete,24.80635239,35.2360624,Tortonian,Eastern Mediterranean,Greece,gastropods
Cropalati,16.72444556,39.51568086,pre-evaporitic Messinian,Eastern Mediterranean,Italy,ostracods
Cropalati,16.72444556,39.51568086,Tortonian,Eastern Mediterranean,Italy,ostracods
Cubertera (Catalonia),2.290282905,41.53294642,Tortonian,Western Mediterranean,Spain,sharks
Cubertera and Ca'n Mayol (Catalonia),2.290282905,41.53294642,Tortonian,Western Mediterranean,Spain,sharks
Cucuron,5.440540383,43.77202725,Tortonian,Western Mediterranean,France,echinoids
Cuenca de Vera (Almeria),-1.867775738,37.24772614,Zanclean,Western Mediterranean,Spain,marine_mammals
Cuenca del Bajo Segura,-0.715421,37.954226,Tortonian,Western Mediterranean,Spain,marine_mammals
Cuenca del Bajo Segura,-0.715421,37.954226,Zanclean,Western Mediterranean,Spain,marine_mammals
Cuenca del Guadalquivir,-4.792678052,38.06405204,pre-evaporitic Messinian,Western Mediterranean,Spain,fish
Cuenca del Guadalquivir,-4.792678052,38.06405204,Tortonian,Western Mediterranean,Spain,fish
Cuevas del Almanzora (Vera Basin),-1.875975012,37.29216362,Zanclean,Western Mediterranean,Spain,planktic_foraminifera
Cyprus,33.22271443,35.04608186,Tortonian,Eastern Mediterranean,Cyprus,corals
Cyprus,33.22271443,35.04608186,Zanclean,Eastern Mediterranean,Cyprus,bivalves
Damanhour South 1 well (Nile delta),30.47278948,31.04243801,pre-evaporitic Messinian,Eastern Mediterranean,Egypt,dinocysts
Damanhour South 1 well (Nile delta),30.47278948,31.04243801,Zanclean,Eastern Mediterranean,Egypt,dinocysts
De Ferrari square (Genova),8.934029072,44.40718487,Zanclean,Western Mediterranean,Italy,marine_mammals
Dertone (Tortona),8.863702842,44.89498783,Tortonian,Po Plain-Northern Adriatic,Italy,corals
Djebel Aoud Sma (Lower Chelif Basin),-0.288055635,35.50253412,pre-evaporitic Messinian,Western Mediterranean,Algeria,bivalves
Djebel Ben Dourda (Chelif Basin),0.395278,36.085,pre-evaporitic Messinian,Western Mediterranean,Algeria,nanoplankton
Djebel Ben Dourda (Chelif Basin),0.395278,36.085,Tortonian,Western Mediterranean,Algeria,nanoplankton
Djebel Krechem,1.182948215,33.2534619,Tortonian,Western Mediterranean,Algeria,marine_mammals
Djebel Meni,0.439166665,36.00222133,Tortonian,Western Mediterranean,Algeria,planktic_foraminifera
Djebel Skouna,-1.39384602,35.26076235,pre-evaporitic Messinian,Western Mediterranean,Algeria,corals
Djebel Tadjahmoumat (Lowe Chelif Basin),1.473065449,36.28278792,pre-evaporitic Messinian,Western Mediterranean,Algeria,bivalves
Djebel Touaka (El Ghomri_Djebel Menie_Abreuvoir),0.499722165,35.51333248,Zanclean,Western Mediterranean,Algeria,planktic_foraminifera
Djebouia (Chelif Basin),0.14204129,36.03264918,pre-evaporitic Messinian,Western Mediterranean,Algeria,bivalves
Douar Sidi Bou Azza (Tafna Basin),-1.431126931,35.20732807,pre-evaporitic Messinian,Western Mediterranean,Algeria,bivalves
Doue-la-Fontaine (Maine et Loire),4.885485038,43.71817083,Tortonian,Western Mediterranean,France,corals
Draa Sidi Saada (Guercif Basin),-3.148527,34.266293,Tortonian,Western Mediterranean,Morocco,corals
Draa Sidi Saada (Guercif Basin),-3.148527,34.266293,pre-evaporitic Messinian,Western Mediterranean,Morocco,corals
Dragopsa,20.68329478,39.59543397,Tortonian,Eastern Mediterranean,Greece,echinoids
Drosi (Crete),24.92818068,35.11940434,Tortonian,Eastern Mediterranean,Greece,ostracods
East Crete,25.87348358,35.15744102,Tortonian,Eastern Mediterranean,Greece,bivalves
El Alamillo (Cuenca de Mazarrian_Murcia),-1.248471618,37.57461691,Zanclean,Western Mediterranean,Spain,marine_mammals
El Lobillo (Estepona),-5.140962257,36.43257401,Zanclean,Western Mediterranean,Spain,gastropods
El Mazar 1 well (North Sinai),33.38114052,31.04129245,pre-evaporitic Messinian,Eastern Mediterranean,Egypt,dinocysts
El Mazar 1 well (North Sinai),33.38114052,31.04129245,Tortonian,Eastern Mediterranean,Egypt,dinocysts
El Menzel (SE Fes),-4.835304691,33.83051541,pre-evaporitic Messinian,Western Mediterranean,Morocco,corals
El Menzel (SE Fes),-4.835304691,33.83051541,Tortonian,Western Mediterranean,Morocco,corals
El Ouata (South Fes),-4.690042951,33.878126,pre-evaporitic Messinian,Western Mediterranean,Morocco,corals
El Plomo (Almeria),-2.431024,36.822086,Tortonian,Western Mediterranean,Spain,corals
El Qawasim 1 well (Nile delta),31.645471,30.824659,Tortonian,Eastern Mediterranean,Egypt,dinocysts
El Qawasim 1 well (Nile delta),31.645471,30.824659,Zanclean,Eastern Mediterranean,Egypt,dinocysts
Elche,-0.71268491,38.26982958,pre-evaporitic Messinian,Western Mediterranean,Spain,corals
Empoli,10.94764514,43.71772617,Zanclean,Po Plain-Northern Adriatic,Italy,ostracods
Enna (Sicily),14.27989212,37.56802925,Tortonian,Eastern Mediterranean,Italy,ostracods
Episkopi,32.871619,34.692641,pre-evaporitic Messinian,Eastern Mediterranean,Cyprus,gastropods
Episkopi,32.871619,34.692641,Tortonian,Eastern Mediterranean,Cyprus,gastropods
Eraclea Minoa (Sicily),13.29124131,37.39422461,Zanclean,Eastern Mediterranean,Italy,benthic_foraminifera
Eraclea Minoa (Sicily),13.29124131,37.39422461,Zanclean,Eastern Mediterranean,Italy,dinocysts
Eraclea Minoa (Sicily),13.29124131,37.39422461,Zanclean,Eastern Mediterranean,Italy,ostracods
Eraclea Minoa (Sicily),13.29124131,37.39422461,Zanclean,Eastern Mediterranean,Italy,planktic_foraminifera
Escaravatier (Var),6.682747269,43.44453956,Zanclean,Western Mediterranean,France,dinocysts
Essovouyes-Exovouyes,33.532317,35.011483,Zanclean,Eastern Mediterranean,Cyprus,planktic_foraminifera
Estepona,5.150278,36.426111,Zanclean,Western Mediterranean,Spain,nanoplankton
Estepona Basin,5.150278,36.426111,Zanclean,Western Mediterranean,Spain,fish
Eyssarettes Puymyras (Rhone delta),5.139205765,44.28343229,Tortonian,Western Mediterranean,France,ostracods
Falconara (Sicily),14.568889,37.127222,pre-evaporitic Messinian,Eastern Mediterranean,Italy,ostracods
Falconara (Sicily),14.568889,37.127222,pre-evaporitic Messinian,Eastern Mediterranean,Italy,planktic_foraminifera
Falconara (Sicily),14.568889,37.127222,Tortonian,Eastern Mediterranean,Italy,ostracods
Falconara (Sicily),14.568889,37.127222,Tortonian,Eastern Mediterranean,Italy,planktic_foraminifera
Fanantello (Vena del Gesso),12.103611,43.949722,pre-evaporitic Messinian,Po Plain-Northern Adriatic,Italy,nanoplankton
Faneromeni (Crete),26.063786,35.223744,pre-evaporitic Messinian,Eastern Mediterranean,Greece,benthic_foraminifera
Faneromeni (Crete),26.063786,35.223744,pre-evaporitic Messinian,Eastern Mediterranean,Greece,bivalves
Faneromeni (Crete),26.063786,35.223744,pre-evaporitic Messinian,Eastern Mediterranean,Greece,dinocysts
Faneromeni (Crete),26.063786,35.223744,pre-evaporitic Messinian,Eastern Mediterranean,Greece,fish
Faneromeni (Crete),26.063786,35.223744,pre-evaporitic Messinian,Eastern Mediterranean,Greece,nanoplankton
Faneromeni (Crete),26.063786,35.223744,pre-evaporitic Messinian,Eastern Mediterranean,Greece,ostracods
Faneromeni (Crete),26.063786,35.223744,pre-evaporitic Messinian,Eastern Mediterranean,Greece,planktic_foraminifera
Faneromeni (Crete),26.063786,35.223744,Tortonian,Eastern Mediterranean,Greece,benthic_foraminifera
Faneromeni (Crete),26.063786,35.223744,Tortonian,Eastern Mediterranean,Greece,bivalves
Faneromeni (Crete),26.063786,35.223744,Tortonian,Eastern Mediterranean,Greece,dinocysts
Faneromeni (Crete),26.063786,35.223744,Tortonian,Eastern Mediterranean,Greece,fish
Faneromeni (Crete),26.063786,35.223744,Tortonian,Eastern Mediterranean,Greece,nanoplankton
Faneromeni (Crete),26.063786,35.223744,Tortonian,Eastern Mediterranean,Greece,ostracods
Faneromeni (Crete),26.063786,35.223744,Tortonian,Eastern Mediterranean,Greece,planktic_foraminifera
Faro Santa Croce (Ragusa_Sicily),15.25621329,37.24340529,pre-evaporitic Messinian,Eastern Mediterranean,Italy,bivalves
Faro Santa Croce (Ragusa_Sicily),15.25621329,37.24340529,pre-evaporitic Messinian,Eastern Mediterranean,Italy,gastropods
Fawwara,14.40955637,35.83968102,Tortonian,Eastern Mediterranean,Malta,fish
Fedj el Alem,2.99823,36.276595,Tortonian,Western Mediterranean,Algeria,corals
Fes,-5.007530425,34.01902623,pre-evaporitic Messinian,Western Mediterranean,Morocco,corals
Fes,-5.007530425,34.01902623,Tortonian,Western Mediterranean,Morocco,bivalves
Fes,-5.007530425,34.01902623,Tortonian,Western Mediterranean,Morocco,corals
Festos (Crete),24.86400599,35.05404272,Tortonian,Eastern Mediterranean,Greece,bivalves
Figaiolles (Montpellier),3.861787889,43.60498232,Zanclean,Western Mediterranean,France,marine_mammals
Figueras (Catalonia),2.958119775,42.26556721,Zanclean,Western Mediterranean,Spain,fish
Filippi (Crete),25.24253712,35.03548908,Tortonian,Eastern Mediterranean,Greece,bivalves
Filippi (Crete),25.24253712,35.03548908,Tortonian,Eastern Mediterranean,Greece,gastropods
Filippi (Crete),25.24253712,35.03548908,Tortonian,Eastern Mediterranean,Greece,marine_mammals
Fitilli,25.148276,35.160764,Tortonian,Eastern Mediterranean,Greece,marine_mammals
Fiumara Capperano,8.882323198,44.41224372,Zanclean,Western Mediterranean,Italy,ostracods
Forage de Douiet,2.061702,35.105186,pre-evaporitic Messinian,Western Mediterranean,Algeria,planktic_foraminifera
Forage de Douiet,2.061702,35.105186,Tortonian,Western Mediterranean,Algeria,planktic_foraminifera
Formentera,1.453304891,38.69639265,Tortonian,Western Mediterranean,Spain,corals
Fornaci (Savona),8.27255977,44.16168974,Zanclean,Western Mediterranean,Italy,marine_mammals
Fornaci San Quirico d'Orcia (Siena),11.6049651,43.05795524,Zanclean,Western Mediterranean,Italy,marine_mammals
Fornaciari (Piacenza),9.385261,44.932149,Tortonian,Po Plain-Northern Adriatic,Italy,bivalves
Fornaciari (Piacenza),9.385261,44.932149,Tortonian,Po Plain-Northern Adriatic,Italy,gastropods
Forte Luesci,13.550736,32.201435,Tortonian,Eastern Mediterranean,Libya,corals
Fortuna Basin,-1.124445651,38.1806921,pre-evaporitic Messinian,Western Mediterranean,Spain,corals
Fortuna Basin,-1.124445651,38.1806921,Tortonian,Western Mediterranean,Spain,corals
Fuehat,13.594682,32.275776,Tortonian,Eastern Mediterranean,Libya,corals
Fuengirola (Malaga),-4.624070573,36.54390083,Zanclean,Western Mediterranean,Spain,bivalves
Gabbro (Tuscany),10.44423102,43.48148738,pre-evaporitic Messinian,Western Mediterranean,Italy,fish
Gabo de Gata (Almeria),-2.241909795,36.78169681,pre-evaporitic Messinian,Western Mediterranean,Spain,corals
Gallina (Calabria),15.67834071,38.08629013,Zanclean,Eastern Mediterranean,Italy,ostracods
Gambetta-St. Eugene (Chelif Basin),-0.617733,35.715377,pre-evaporitic Messinian,Western Mediterranean,Algeria,fish
Gare Saint Paul de Lyon (Rhone),4.827356398,45.76612759,Tortonian,Western Mediterranean,France,corals
Gargar (Lower Chelif Basin),-0.566106,35.63019,pre-evaporitic Messinian,Western Mediterranean,Algeria,bivalves
Garruchal (Bajo Segura Basin),-1.016124773,37.83189623,pre-evaporitic Messinian,Western Mediterranean,Spain,benthic_foraminifera
Garruchal (Bajo Segura Basin),-1.016124773,37.83189623,Tortonian,Western Mediterranean,Spain,benthic_foraminifera
Gavazzana (Alessandria),8.886163628,44.77574642,pre-evaporitic Messinian,Po Plain-Northern Adriatic,Italy,gastropods
Gavdos,24.08447853,34.84628185,pre-evaporitic Messinian,Eastern Mediterranean,Greece,fish
Gavdos,24.08447853,34.84628185,Tortonian,Eastern Mediterranean,Greece,echinoids
Gavdos,24.08447853,34.84628185,Tortonian,Eastern Mediterranean,Greece,fish
Gello,10.42491251,43.75546181,pre-evaporitic Messinian,Western Mediterranean,Italy,planktic_foraminifera
Genova,8.945755895,44.40521056,Zanclean,Western Mediterranean,Italy,gastropods
Gerace (Calabria),16.22162446,38.27196012,Zanclean,Eastern Mediterranean,Italy,ostracods
Gergeri-Raptis (Crete),24.964444,35.1125,Tortonian,Eastern Mediterranean,Greece,ostracods
Gessaro and Stingeti,14.880278,41.902222,pre-evaporitic Messinian,Po Plain-Northern Adriatic,Italy,nanoplankton
Gessaro and Stingeti,14.880278,41.902222,Zanclean,Po Plain-Northern Adriatic,Italy,nanoplankton
Gessaro quarry,14.895833,41.889722,Zanclean,Po Plain-Northern Adriatic,Italy,ostracods
Ghajn Znuber,14.3434165,35.95004229,pre-evaporitic Messinian,Eastern Mediterranean,Malta,corals
Ghar Lapsi,14.42476784,35.82723971,Tortonian,Eastern Mediterranean,Malta,corals
Gibliscemi,14.268056,37.204444,pre-evaporitic Messinian,Eastern Mediterranean,Italy,benthic_foraminifera
Gibliscemi,14.268056,37.204444,pre-evaporitic Messinian,Eastern Mediterranean,Italy,dinocysts
Gibliscemi,14.268056,37.204444,pre-evaporitic Messinian,Eastern Mediterranean,Italy,fish
Gibliscemi,14.268056,37.204444,pre-evaporitic Messinian,Eastern Mediterranean,Italy,planktic_foraminifera
Gibliscemi,14.268056,37.204444,Tortonian,Eastern Mediterranean,Italy,benthic_foraminifera
Gibliscemi,14.268056,37.204444,Tortonian,Eastern Mediterranean,Italy,dinocysts
Gibliscemi,14.268056,37.204444,Tortonian,Eastern Mediterranean,Italy,nanoplankton
Gibliscemi,14.268056,37.204444,Tortonian,Eastern Mediterranean,Italy,planktic_foraminifera
Giolou,32.4769269,34.92264258,Zanclean,Eastern Mediterranean,Cyprus,planktic_foraminifera
Giusulana (Alessandria),8.91221133,44.77547522,Tortonian,Po Plain-Northern Adriatic,Italy,gastropods
Gonies (Crete),25.44248574,35.22983362,Tortonian,Eastern Mediterranean,Greece,gastropods
Gonies (Crete),25.44248574,35.22983362,Tortonian,Eastern Mediterranean,Greece,scaphopod_chitons_cephalopods
Gonies (Crete),25.44248574,35.22983362,Zanclean,Eastern Mediterranean,Greece,gastropods
Gonies I (Kythira),22.975967,36.298506,Tortonian,Eastern Mediterranean,Greece,ostracods
Gonies II (Kythira),22.975967,36.298506,Tortonian,Eastern Mediterranean,Greece,ostracods
Gonies III (Kythira),22.975967,36.298506,Tortonian,Eastern Mediterranean,Greece,ostracods
Gorgo (Livorno),10.33936,43.568537,Tortonian,Western Mediterranean,Italy,corals
Gortys (Crete),25.095278,35.154722,pre-evaporitic Messinian,Eastern Mediterranean,Greece,nanoplankton
Gortys (Crete),25.095278,35.154722,Tortonian,Eastern Mediterranean,Greece,bivalves
Gortys (Crete),25.095278,35.154722,Tortonian,Eastern Mediterranean,Greece,gastropods
Gortys (Crete),25.095278,35.154722,Zanclean,Eastern Mediterranean,Greece,nanoplankton
Gozo,14.25088289,36.04420402,Tortonian,Eastern Mediterranean,Malta,corals
Gozo,14.25088289,36.04420402,Tortonian,Eastern Mediterranean,Malta,marine_mammals
Gramvoussa (Crete),23.5847582,35.62644822,Tortonian,Eastern Mediterranean,Greece,corals
Granada Basin,-3.598829596,37.17750534,pre-evaporitic Messinian,Western Mediterranean,Spain,planktic_foraminifera
Granada Basin,-3.598829596,37.17750534,Tortonian,Western Mediterranean,Spain,corals
Granada Basin,-3.598829596,37.17750534,Tortonian,Western Mediterranean,Spain,planktic_foraminifera
Greece,21.81490104,39.03975838,pre-evaporitic Messinian,Eastern Mediterranean,Greece,scaphopod_chitons_cephalopods
Greece,21.81490104,39.03975838,Tortonian,Eastern Mediterranean,Greece,bivalves
Greece,21.81490104,39.03975838,Tortonian,Eastern Mediterranean,Greece,corals
Greece,21.81490104,39.03975838,Zanclean,Eastern Mediterranean,Greece,bivalves
Greensand,14.418924,35.938178,Tortonian,Eastern Mediterranean,Malta,marine_mammals
Guadalmansa (Estepona_Malaga),-5.063694753,36.45182472,Zanclean,Western Mediterranean,Spain,bivalves
Guadalmansa (Estepona_Malaga),-5.063694753,36.45182472,Zanclean,Western Mediterranean,Spain,gastropods
Guadix Basin,-3.14024084,37.30135287,Tortonian,Western Mediterranean,Spain,corals
Guardavalle (Catanzaro_Calabria),16.50142193,38.50614218,Tortonian,Eastern Mediterranean,Italy,corals
Guarene d'Alba (Cuneo),8.045040712,44.72918991,Tortonian,Po Plain-Northern Adriatic,Italy,gastropods
Guercif Basin,-3.349542616,34.23032187,pre-evaporitic Messinian,Western Mediterranean,Morocco,planktic_foraminifera
Guercif Basin,-3.349542616,34.23032187,Tortonian,Western Mediterranean,Morocco,corals
Guercif Basin,-3.349542616,34.23032187,Tortonian,Western Mediterranean,Morocco,planktic_foraminifera
Haciahmetli section,35.939417,36.384972,pre-evaporitic Messinian,Eastern Mediterranean,Turkey,dinocysts
Haciahmetli section,35.939417,36.384972,Tortonian,Eastern Mediterranean,Turkey,dinocysts
Hamadouche (Lower Chelif Basin),-0.548732762,35.30001131,pre-evaporitic Messinian,Western Mediterranean,Algeria,bivalves
Hammamet Gulf (Jiriba-1 borehole),3.253657841,36.68431345,Zanclean,Western Mediterranean,Algeria,dinocysts
Hammar Semmoumet (Lower Chelif Basin),0.165516,36.026508,pre-evaporitic Messinian,Western Mediterranean,Algeria,bivalves
Haoudh El Kebir (Chelif Basin),-0.706976081,35.72910064,pre-evaporitic Messinian,Western Mediterranean,Algeria,bivalves
Happy Valley,32.623198,34.977733,Tortonian,Eastern Mediterranean,Cyprus,corals
Hatay Graben,36.16082025,36.20244517,Zanclean,Eastern Mediterranean,Turkey,gastropods
Hauterives (Drome_Rhone Basin),5.028631683,45.25718448,Tortonian,Western Mediterranean,France,corals
Hellin,-1.69772444,38.5068376,Tortonian,Western Mediterranean,Spain,fish
Herault,3.883169635,43.60870633,Tortonian,Western Mediterranean,France,echinoids
Hueli (Sorbas),-2.122422,37.09947,pre-evaporitic Messinian,Western Mediterranean,Spain,corals
Hurchillo (Alicante),-0.922286484,38.05936955,pre-evaporitic Messinian,Western Mediterranean,Spain,fish
Iberkanenr (Kebdana Basin),-2.660000036,34.99989372,pre-evaporitic Messinian,Western Mediterranean,Morocco,bivalves
Ibiza,1.420807204,38.9065922,Tortonian,Western Mediterranean,Spain,corals
Ichemlalene (Kert Basin),4.51684362,36.84766913,pre-evaporitic Messinian,Western Mediterranean,Morocco,bivalves
Idorotshene (Melilla Basin),-2.942817,35.247366,pre-evaporitic Messinian,Western Mediterranean,Morocco,bivalves
Idoudouhane (Melilla Basin),-2.942817,35.247366,pre-evaporitic Messinian,Western Mediterranean,Morocco,bivalves
Ierapetra,25.74075105,35.01143114,Tortonian,Eastern Mediterranean,Greece,fish
Ierapetra,25.74075105,35.01143114,Tortonian,Eastern Mediterranean,Greece,gastropods
Ierapetra,25.74075105,35.01143114,Tortonian,Eastern Mediterranean,Greece,scaphopod_chitons_cephalopods
In-n-Narramine (Segangane Basin),-3.000200864,35.1589169,pre-evaporitic Messinian,Western Mediterranean,Morocco,bivalves
Internal Rif,5.318889,35.519722,Zanclean,Western Mediterranean,Morocco,nanoplankton
Irachamene (Boudinar Basin),-3.62993,35.145265,pre-evaporitic Messinian,Western Mediterranean,Morocco,bivalves
Irachamene (Boudinar Basin),-3.62993,35.145265,pre-evaporitic Messinian,Western Mediterranean,Morocco,planktic_foraminifera
Irachamene (Boudinar Basin),-3.62993,35.145265,Tortonian,Western Mediterranean,Morocco,planktic_foraminifera
Irhzazene (Melilla Basin),-2.951743,35.251852,pre-evaporitic Messinian,Western Mediterranean,Morocco,bivalves
Iscala Sale (Sardinia),9.714486404,40.6804435,pre-evaporitic Messinian,Western Mediterranean,Italy,echinoids
Isere (Rhone Basin),5.732656439,45.18436856,Tortonian,Western Mediterranean,France,corals
Italy,12.44132604,43.07701918,pre-evaporitic Messinian,Western Mediterranean,Italy,scaphopod_chitons_cephalopods
Italy,12.44132604,43.07701918,Tortonian,Western Mediterranean,Italy,corals
Italy,12.44132604,43.07701918,Tortonian,Western Mediterranean,Italy,scaphopod_chitons_cephalopods
Italy,12.44132604,43.07701918,Zanclean,Western Mediterranean,Italy,scaphopod_chitons_cephalopods
Jayena (Granada Basin),-3.82290418,36.9484645,Tortonian,Western Mediterranean,Spain,corals
Jbel Lambignat (Kebdana Basin),-2.654506912,35.03038422,pre-evaporitic Messinian,Western Mediterranean,Morocco,bivalves
Jbiouia,0.774872,35.969773,pre-evaporitic Messinian,Western Mediterranean,Algeria,echinoids
Jebel Achil ou Zobzit (South Fes_Taza_Guercif Basin),-3.328086172,34.21910202,Tortonian,Western Mediterranean,Morocco,corals
Jebel Binette,-3.65327104,34.77966653,Tortonian,Western Mediterranean,Morocco,corals
Jebel Bou Haidour (West Tadount),-3.309082094,34.72867152,Tortonian,Western Mediterranean,Morocco,corals
Jebel Faouar,10.31221854,36.27327317,Tortonian,Eastern Mediterranean,Tunisia,corals
Jebel Hakima,10.06083327,37.1910419,Tortonian,Western Mediterranean,Tunisia,corals
Jebel Kechabta (South of Bizerte lake),9.951431781,37.11218716,Tortonian,Western Mediterranean,Tunisia,corals
Jebel Sarij (South of Taza_Guercif Basin),-3.328086172,34.21910202,Tortonian,Western Mediterranean,Morocco,corals
Jebel Tizeroutine (North of Taza_Guercif Basin),-3.78162382,34.55444359,Tortonian,Western Mediterranean,Morocco,corals
Jijel,5.751531671,36.81544693,pre-evaporitic Messinian,Western Mediterranean,Algeria,ostracods
Jijel,5.751531671,36.81544693,Tortonian,Western Mediterranean,Algeria,ostracods
Kafr El Dawar 1 well (Nile delta),30.13370719,31.1340092,pre-evaporitic Messinian,Eastern Mediterranean,Egypt,dinocysts
Kafr El Dawar 1 well (Nile delta),30.13370719,31.1340092,Tortonian,Eastern Mediterranean,Egypt,dinocysts
Kafr El Dawar 1 well (Nile delta),30.13370719,31.1340092,Zanclean,Eastern Mediterranean,Egypt,dinocysts
Kafr El Sheikh 1 well (Nile delta),30.93898232,31.11109117,pre-evaporitic Messinian,Eastern Mediterranean,Egypt,dinocysts
Kafr El Sheikh 1 well (Nile delta),30.93898232,31.11109117,Zanclean,Eastern Mediterranean,Egypt,dinocysts
Kaimeni (Crete),23.333604,37.61456003,Tortonian,Eastern Mediterranean,Greece,gastropods
Kalamaki (Zakynthos),20.917778,37.737222,pre-evaporitic Messinian,Eastern Mediterranean,Greece,nanoplankton
Kalamaki (Zakynthos),20.917778,37.737222,pre-evaporitic Messinian,Eastern Mediterranean,Greece,planktic_foraminifera
Kalamaki (Zakynthos),20.917778,37.737222,Zanclean,Eastern Mediterranean,Greece,nanoplankton
Kalamaki (Zakynthos),20.917778,37.737222,Zanclean,Eastern Mediterranean,Greece,planktic_foraminifera
Kalamavka (Crete),25.65660224,35.07593228,Tortonian,Eastern Mediterranean,Greece,planktic_foraminifera
Kalogeri (Crete),25.67177248,35.03115278,Tortonian,Eastern Mediterranean,Greece,gastropods
Kapariana (Crete),24.895083,35.061528,pre-evaporitic Messinian,Eastern Mediterranean,Greece,bivalves
Kapariana (Crete),24.895083,35.061528,pre-evaporitic Messinian,Eastern Mediterranean,Greece,fish
Kapariana (Crete),24.895083,35.061528,pre-evaporitic Messinian,Eastern Mediterranean,Greece,gastropods
Kapariana (Crete),24.895083,35.061528,pre-evaporitic Messinian,Eastern Mediterranean,Greece,ostracods
Kapariana (Crete),24.895083,35.061528,pre-evaporitic Messinian,Eastern Mediterranean,Greece,planktic_foraminifera
Kapariana (Crete),24.895083,35.061528,Tortonian,Eastern Mediterranean,Greece,bivalves
Kapariana (Crete),24.895083,35.061528,Tortonian,Eastern Mediterranean,Greece,corals
Kapariana (Crete),24.895083,35.061528,Tortonian,Eastern Mediterranean,Greece,gastropods
Kapariana (Crete),24.895083,35.061528,Tortonian,Eastern Mediterranean,Greece,ostracods
Kapariana (Crete),24.895083,35.061528,Tortonian,Eastern Mediterranean,Greece,planktic_foraminifera
Kaplica,33.91329334,35.41322456,Tortonian,Eastern Mediterranean,Cyprus,planktic_foraminifera
Karaali (Hatay Graben),36.15467167,36.30510325,Zanclean,Eastern Mediterranean,Turkey,bivalves
Karaali (Hatay Graben),36.15467167,36.30510325,Zanclean,Eastern Mediterranean,Turkey,gastropods
Karave (Gavdos),24.11700772,34.84876449,Tortonian,Eastern Mediterranean,Greece,corals
Kavouri,21.36177595,37.6631997,Tortonian,Eastern Mediterranean,Greece,echinoids
Kebdana,-2.416241237,35.13108566,pre-evaporitic Messinian,Western Mediterranean,Morocco,corals
Kefala (Crete),25.71205336,35.04872974,Tortonian,Eastern Mediterranean,Greece,gastropods
Kefala (Crete),25.71205336,35.04872974,Tortonian,Eastern Mediterranean,Greece,marine_mammals
Kentri (Crete),25.75315267,35.03295273,Tortonian,Eastern Mediterranean,Greece,scaphopod_chitons_cephalopods
Kephallonia,20.56968318,38.17675512,Tortonian,Eastern Mediterranean,Greece,bivalves
Kesecik (Hatay Graben),36.09183096,36.25143887,Zanclean,Eastern Mediterranean,Turkey,gastropods
Khairetiana (Crete),24.94842086,35.11046124,pre-evaporitic Messinian,Eastern Mediterranean,Greece,ostracods
Khairetiana (Crete),24.94842086,35.11046124,Tortonian,Eastern Mediterranean,Greece,ostracods
Khirokitia,33.34398666,34.79644188,Tortonian,Eastern Mediterranean,Cyprus,gastropods
Kizlargozu section,35.847756,36.365228,pre-evaporitic Messinian,Eastern Mediterranean,Turkey,dinocysts
Kizlargozu section,35.847756,36.365228,Tortonian,Eastern Mediterranean,Turkey,dinocysts
Korfi (Gavdos),24.09877788,34.82900387,Tortonian,Eastern Mediterranean,Greece,corals
Kotsiana,23.71776252,35.48369367,Tortonian,Eastern Mediterranean,Greece,marine_mammals
Koudia Mereina,6.59157962,36.89954046,pre-evaporitic Messinian,Western Mediterranean,Algeria,corals
Koudiat Airane,3.475983504,34.74279025,Tortonian,Western Mediterranean,Morocco,corals
Koumi (Kavrochori),24.44080709,35.27329475,pre-evaporitic Messinian,Eastern Mediterranean,Greece,corals
Kourtes (Crete),24.90415836,35.11070984,Tortonian,Eastern Mediterranean,Greece,bivalves
Kourtes (Crete),24.90415836,35.11070984,Tortonian,Eastern Mediterranean,Greece,gastropods
Kourtes (Crete),24.90415836,35.11070984,Zanclean,Eastern Mediterranean,Greece,ostracods
Koutsounari,25.82992364,35.01673114,pre-evaporitic Messinian,Eastern Mediterranean,Greece,corals
Kusalani (Hatay Graben),36.01167044,36.09553133,Zanclean,Eastern Mediterranean,Turkey,bivalves
Kusalani (Hatay Graben),36.01167044,36.09553133,Zanclean,Eastern Mediterranean,Turkey,gastropods
Kuzucubelen (Mersin),34.45,36.8,pre-evaporitic Messinian,Eastern Mediterranean,Turkey,ostracods
Kuzucubelen (Mersin),34.45,36.8,Tortonian,Eastern Mediterranean,Turkey,ostracods
La Bastidonne (Vaucluse),5.567667893,43.70096952,Tortonian,Western Mediterranean,France,corals
La Colle sur Loup (Montfort_Var),7.110351799,43.67943212,Zanclean,Western Mediterranean,France,dinocysts
La Guardiola (Ibiza),1.362438,38.940589,Tortonian,Western Mediterranean,Spain,corals
La Lancha (Guadix Basin),-3.145347,37.310916,Tortonian,Western Mediterranean,Spain,planktic_foraminifera
La Mela (Sorbas Basin),-2.127657632,37.09856338,pre-evaporitic Messinian,Western Mediterranean,Spain,bivalves
La Sayvonne (Visan_Rhone delta),4.963362,44.314035,Tortonian,Western Mediterranean,France,ostracods
La Serra (Catalonia),2.216667598,41.65002167,Tortonian,Western Mediterranean,Spain,sharks
La Serratilla (Fortuna Basin),0.030121554,40.31983998,Tortonian,Western Mediterranean,Spain,fish
La Spessa (Valsugana),12.369778,45.747183,Tortonian,Po Plain-Northern Adriatic,Italy,bivalves
La Torretta,12.492956,41.77747,Zanclean,Western Mediterranean,Italy,planktic_foraminifera
Lalla Kouba (Kabylie des Babors),5.504958463,36.60678009,Tortonian,Western Mediterranean,Algeria,corals
Lampedusa,12.60575847,35.50039438,pre-evaporitic Messinian,Eastern Mediterranean,Italy,corals
Lampedusa,12.60575847,35.50039438,pre-evaporitic Messinian,Eastern Mediterranean,Italy,ostracods
Landro (Sicily),13.98895188,37.6519642,pre-evaporitic Messinian,Eastern Mediterranean,Italy,corals
Landro (Sicily),13.98895188,37.6519642,pre-evaporitic Messinian,Eastern Mediterranean,Italy,ostracods
Lari Oussardoun (Boudinar Basin),-3.623578985,35.1462997,pre-evaporitic Messinian,Western Mediterranean,Morocco,bivalves
Las Negras (Almeria),-2.011301395,36.87935857,Tortonian,Western Mediterranean,Spain,corals
Las Palmares,4.418889,36.735,Zanclean,Western Mediterranean,Spain,ostracods
Le Puget sur Argens (Var),6.683546827,43.45545021,Zanclean,Western Mediterranean,France,fish
Le Puget sur Argens (Var),6.683546827,43.45545021,Zanclean,Western Mediterranean,France,gastropods
Le Puget sur Argens (Var),6.683546827,43.45545021,Zanclean,Western Mediterranean,France,sharks
Le Saline (Tuscany),9.816024388,43.00955587,Zanclean,Western Mediterranean,Italy,marine_mammals
Legnagnone (Emilia Romagna),12.352222,43.919444,pre-evaporitic Messinian,Po Plain-Northern Adriatic,Italy,bivalves
Legnagnone (Emilia Romagna),12.352222,43.919444,pre-evaporitic Messinian,Po Plain-Northern Adriatic,Italy,ostracods
Legnagnone (Emilia Romagna),12.352222,43.919444,pre-evaporitic Messinian,Po Plain-Northern Adriatic,Italy,planktic_foraminifera
Legoli (Pisa),10.7929985,43.57101016,Zanclean,Western Mediterranean,Italy,gastropods
Lemme,12.0019459,42.44777154,Tortonian,Western Mediterranean,Italy,dinocysts
Les Planteurs (Chelif Basin),1.316889174,36.11183286,pre-evaporitic Messinian,Western Mediterranean,Algeria,fish
Les Planteurs (Chelif Basin),1.316889174,36.11183286,pre-evaporitic Messinian,Western Mediterranean,Algeria,sharks
Les Ponsons (Drome_Rhone Basin),4.72727478,45.09035654,Tortonian,Western Mediterranean,France,corals
Leuca (Salento),18.3548084,39.7994077,pre-evaporitic Messinian,Eastern Mediterranean,Italy,corals
Libya,15.19726276,30.19802734,Tortonian,Eastern Mediterranean,Libya,corals
Licata (Sicily),13.93728759,37.10184221,pre-evaporitic Messinian,Eastern Mediterranean,Italy,fish
Liguria,8.79009704,44.45584775,Zanclean,Western Mediterranean,Spain,corals
Limonar,4.368056,36.718889,Zanclean,Western Mediterranean,Spain,ostracods
Livorno,10.30880241,43.54873617,pre-evaporitic Messinian,Western Mediterranean,Italy,corals
Livorno,10.30880241,43.54873617,Tortonian,Western Mediterranean,Italy,corals
Llora (Granada Basin),-3.880488097,37.28691482,Tortonian,Western Mediterranean,Spain,corals
Lo Rufete (Bajo Segura Basin),-0.822637073,37.99720328,pre-evaporitic Messinian,Western Mediterranean,Spain,benthic_foraminifera
Lorca,-1.6973119,37.67367359,pre-evaporitic Messinian,Western Mediterranean,Spain,corals
Lorca,-1.6973119,37.67367359,pre-evaporitic Messinian,Western Mediterranean,Spain,fish
Lorca,-1.6973119,37.67367359,Tortonian,Western Mediterranean,Spain,corals
Los Lobos (Sorbas Basin),-1.764469121,37.30811815,pre-evaporitic Messinian,Western Mediterranean,Spain,bivalves
Los Molinos (Sorbas Basin),-2.072897655,37.08760067,pre-evaporitic Messinian,Western Mediterranean,Spain,fish
Los Yesos (Sorbas Basin),-3.262430604,36.7527232,pre-evaporitic Messinian,Western Mediterranean,Spain,benthic_foraminifera
Los Yesos (Sorbas Basin),-3.262430604,36.7527232,pre-evaporitic Messinian,Western Mediterranean,Spain,bivalves
Lyon,4.835570831,45.76405036,Tortonian,Western Mediterranean,France,corals
Maccarone,13.100417,43.405833,Zanclean,Po Plain-Northern Adriatic,Italy,nanoplankton
Maccarone,13.100417,43.405833,Zanclean,Po Plain-Northern Adriatic,Italy,ostracods
Maccarone,13.100417,43.405833,Zanclean,Po Plain-Northern Adriatic,Italy,planktic_foraminifera
Machairidi Gdochia,25.55473425,35.01687668,Tortonian,Eastern Mediterranean,Greece,marine_mammals
Magnano (Biella),8.002059011,45.46295746,Zanclean,Po Plain-Northern Adriatic,Italy,gastropods
Maiella Mountain,14.0860596,42.08632542,pre-evaporitic Messinian,Western Mediterranean,Italy,corals
Malaga Basin,-4.424198017,36.71963081,Zanclean,Western Mediterranean,Spain,gastropods
Malaga Basin,-4.424198017,36.71963081,Zanclean,Western Mediterranean,Spain,planktic_foraminifera
Mallorca,3.021930239,39.70152799,Tortonian,Western Mediterranean,Spain,marine_mammals
Mallorca,3.021930239,39.70152799,Tortonian,Western Mediterranean,Spain,sharks
Malta,14.45043881,35.88397614,pre-evaporitic Messinian,Eastern Mediterranean,Malta,corals
Malta,14.45043881,35.88397614,pre-evaporitic Messinian,Eastern Mediterranean,Malta,ostracods
Malta,14.45043881,35.88397614,pre-evaporitic Messinian,Eastern Mediterranean,Malta,corals
Malta,14.45043881,35.88397614,pre-evaporitic Messinian,Eastern Mediterranean,Malta,echinoids
Malta,14.45043881,35.88397614,pre-evaporitic Messinian,Eastern Mediterranean,Malta,marine_mammals
Malta,14.45043881,35.88397614,pre-evaporitic Messinian,Eastern Mediterranean,Malta,ostracods
Malta,14.45043881,35.88397614,pre-evaporitic Messinian,Eastern Mediterranean,Malta,sharks
Manasi (Lefkas),20.61002371,38.69414079,Tortonian,Eastern Mediterranean,Greece,planktic_foraminifera
Manilva Basin,-5.25073336,36.37614143,Zanclean,Western Mediterranean,Spain,corals
Marbzier (Montpellier),3.847385845,43.65794408,Zanclean,Western Mediterranean,France,marine_mammals
Marecchia River,12.44010048,44.03293282,Zanclean,Po Plain-Northern Adriatic,Italy,fish
Marentino (Asti_Piedmont),7.879277,45.051725,Zanclean,Po Plain-Northern Adriatic,Italy,ostracods
Marmorito,8.019799484,45.06923015,Zanclean,Po Plain-Northern Adriatic,Italy,corals
Masserano (Biella),8.226629716,45.59336109,Zanclean,Po Plain-Northern Adriatic,Italy,gastropods
Masseria il Salto (Sicily),14.58938166,37.29654251,pre-evaporitic Messinian,Eastern Mediterranean,Italy,fish
Masseria Torricella (Lecce),17.89535942,40.34370454,Zanclean,Eastern Mediterranean,Italy,ostracods
Matala (Crete),24.74945275,34.99334828,Tortonian,Eastern Mediterranean,Greece,corals
Medea,2.748840567,36.30385878,Tortonian,Western Mediterranean,Algeria,ostracods
Meduna,12.76025568,45.99143058,Tortonian,Po Plain-Northern Adriatic,Italy,bivalves
Meknes (Sais Basin),-5.494079814,33.86401687,Tortonian,Western Mediterranean,Morocco,bivalves
Melilla,-2.937660186,35.29209599,pre-evaporitic Messinian,Western Mediterranean,Morocco,corals
Melilla,-2.937660186,35.29209599,pre-evaporitic Messinian,Western Mediterranean,Morocco,echinoids
Melilla,-2.937660186,35.29209599,pre-evaporitic Messinian,Western Mediterranean,Morocco,fish
Menorca,3.838673246,39.9991544,Tortonian,Western Mediterranean,Spain,corals
Menorca,3.838673246,39.9991544,Tortonian,Western Mediterranean,Spain,echinoids
Mesa Roldan (Agua Amarga Basin_Almeria),-1.906471435,36.94156908,Tortonian,Western Mediterranean,Spain,corals
Mesaoria,33.70894422,35.18985028,Zanclean,Eastern Mediterranean,Cyprus,fish
Messina (Sicily),15.55364683,38.19671218,pre-evaporitic Messinian,Eastern Mediterranean,Italy,corals
Messina (Sicily),15.55364683,38.19671218,Zanclean,Eastern Mediterranean,Italy,sharks
Metochi Kardamiana (Crete),21.39949166,38.12575393,Tortonian,Eastern Mediterranean,Greece,bivalves
Metochi Kardamiana (Crete),21.39949166,38.12575393,Tortonian,Eastern Mediterranean,Greece,gastropods
Metochia (Gavdos),24.100278,34.853611,pre-evaporitic Messinian,Eastern Mediterranean,Greece,benthic_foraminifera
Metochia (Gavdos),24.100278,34.853611,pre-evaporitic Messinian,Eastern Mediterranean,Greece,nanoplankton
Metochia (Gavdos),24.100278,34.853611,pre-evaporitic Messinian,Eastern Mediterranean,Greece,planktic_foraminifera
Metochia (Gavdos),24.100278,34.853611,Tortonian,Eastern Mediterranean,Greece,benthic_foraminifera
Metochia (Gavdos),24.100278,34.853611,Tortonian,Eastern Mediterranean,Greece,nanoplankton
Metochia (Gavdos),24.100278,34.853611,Tortonian,Eastern Mediterranean,Greece,planktic_foraminifera
Mezquitilla,4.035278,36.751111,Zanclean,Western Mediterranean,Spain,ostracods
Milazzo (Sicily),15.2415525,38.2209635,pre-evaporitic Messinian,Eastern Mediterranean,Italy,corals
Milazzo (Sicily),15.2415525,38.2209635,Tortonian,Eastern Mediterranean,Italy,corals
Mires (Crete),24.87290313,35.05157124,pre-evaporitic Messinian,Eastern Mediterranean,Greece,bivalves
Mires (Crete),24.87290313,35.05157124,pre-evaporitic Messinian,Eastern Mediterranean,Greece,fish
Mires (Crete),24.87290313,35.05157124,pre-evaporitic Messinian,Eastern Mediterranean,Greece,gastropods
Mirzakli-Kirectepe (Hatay Graben),36.00337188,36.1260978,Zanclean,Eastern Mediterranean,Turkey,bivalves
Mirzakli-Kirectepe (Hatay Graben),36.00337188,36.1260978,Zanclean,Eastern Mediterranean,Turkey,gastropods
Mit Ghamr 1 well (Nile delta),31.25981983,30.71986151,Zanclean,Eastern Mediterranean,Egypt,dinocysts
Mitata (Kythira),22.9936177,36.2460994,Zanclean,Eastern Mediterranean,Greece,ostracods
Modena,10.92464985,44.64699655,Tortonian,Po Plain-Northern Adriatic,Italy,corals
Monachil (Granada Basin),-3.540314697,37.13224135,Tortonian,Western Mediterranean,Spain,corals
Monbercelli (Sabbie d'Asti_Piedmont),8.293597139,44.82310848,Zanclean,Po Plain-Northern Adriatic,Italy,marine_mammals
Moncalvo (Piedmont),8.240278,45.052222,pre-evaporitic Messinian,Po Plain-Northern Adriatic,Italy,nanoplankton
Moncalvo (Piedmont),8.240278,45.052222,pre-evaporitic Messinian,Po Plain-Northern Adriatic,Italy,planktic_foraminifera
Moncucco (Piedmont),8.286429246,44.80744091,pre-evaporitic Messinian,Po Plain-Northern Adriatic,Italy,fish
Moncucco (Piedmont),8.286429246,44.80744091,pre-evaporitic Messinian,Po Plain-Northern Adriatic,Italy,gastropods
Moncucco (Piedmont),8.286429246,44.80744091,Zanclean,Po Plain-Northern Adriatic,Italy,benthic_foraminifera
Moncucco (Piedmont),8.286429246,44.80744091,Zanclean,Po Plain-Northern Adriatic,Italy,ostracods
Moncucco (Piedmont),8.286429246,44.80744091,Zanclean,Po Plain-Northern Adriatic,Italy,planktic_foraminifera
Mondaino,12.67158838,43.85738137,pre-evaporitic Messinian,Po Plain-Northern Adriatic,Italy,fish
Mongardino (Bologna),11.21109027,44.41767925,Tortonian,Po Plain-Northern Adriatic,Italy,marine_mammals
Moni Gorgolaini (Crete),24.98977581,35.20616277,pre-evaporitic Messinian,Eastern Mediterranean,Greece,planktic_foraminifera
Moni Gorgolaini (Crete),24.98977581,35.20616277,Tortonian,Eastern Mediterranean,Greece,planktic_foraminifera
Montafia (Sabbie d'Asti_Piedmont),8.025974378,44.9890134,Zanclean,Po Plain-Northern Adriatic,Italy,marine_mammals
Montagnano (Arezzo_Tuscany),11.81118232,43.34786388,Tortonian,Western Mediterranean,Italy,corals
Montalcino (Tuscany),11.48932277,43.05503174,Zanclean,Western Mediterranean,Italy,marine_mammals
Monte Antico (Grosseto),11.36361724,42.98312527,Zanclean,Western Mediterranean,Italy,bivalves
Monte Antico (Grosseto),11.36361724,42.98312527,Zanclean,Western Mediterranean,Italy,gastropods
Monte Capriolo (Bra_Cuneo),7.598939248,44.37308531,Zanclean,Po Plain-Northern Adriatic,Italy,gastropods
Monte Capriolo (Bra_Cuneo),7.598939248,44.37308531,Zanclean,Po Plain-Northern Adriatic,Italy,scaphopod_chitons_cephalopods
Monte Carrubba (Sicily),14.56394962,37.5781174,Tortonian,Eastern Mediterranean,Italy,corals
Monte dei Corvi,13.55004288,43.58327024,Tortonian,Po Plain-Northern Adriatic,Italy,planktic_foraminifera
Monte del Casino,11.625,44.269722,pre-evaporitic Messinian,Po Plain-Northern Adriatic,Italy,benthic_foraminifera
Monte del Casino,11.625,44.269722,pre-evaporitic Messinian,Po Plain-Northern Adriatic,Italy,nanoplankton
Monte del Casino,11.625,44.269722,pre-evaporitic Messinian,Po Plain-Northern Adriatic,Italy,planktic_foraminifera
Monte del Casino,11.625,44.269722,Tortonian,Po Plain-Northern Adriatic,Italy,benthic_foraminifera
Monte del Casino,11.625,44.269722,Tortonian,Po Plain-Northern Adriatic,Italy,nanoplankton
Monte del Casino,11.625,44.269722,Tortonian,Po Plain-Northern Adriatic,Italy,planktic_foraminifera
Monte della Verna,11.9313035,43.70686467,Tortonian,Po Plain-Northern Adriatic,Italy,corals
Monte Fiocca Presso Sassari (Sardinia),10.25231788,44.07189845,Tortonian,Western Mediterranean,Italy,marine_mammals
Monte Mario,12.45017055,41.91653283,Zanclean,Western Mediterranean,Italy,ostracods
Monte Oliveto (Emilia Romagna),11.71915187,44.85193127,Zanclean,Po Plain-Northern Adriatic,Italy,marine_mammals
Monte Poro (Vibo Valentia_Calabria),15.90450153,38.59868669,Tortonian,Eastern Mediterranean,Italy,marine_mammals
Monte San Nicola,13.66087904,42.12268245,Zanclean,Western Mediterranean,Italy,ostracods
Montebaranzone (Modena),10.77527557,44.47955177,Tortonian,Po Plain-Northern Adriatic,Italy,corals
Montebaranzone (Modena),10.77527557,44.47955177,Tortonian,Po Plain-Northern Adriatic,Italy,ostracods
Montebello,12.3680614,43.97034682,Tortonian,Po Plain-Northern Adriatic,Italy,gastropods
Montebello,12.3680614,43.97034682,Tortonian,Po Plain-Northern Adriatic,Italy,ostracods
Montegibbio,10.78305853,44.51135448,Tortonian,Po Plain-Northern Adriatic,Italy,corals
Montegibbio,10.78305853,44.51135448,Tortonian,Po Plain-Northern Adriatic,Italy,echinoids
Montegibbio,10.78305853,44.51135448,Tortonian,Po Plain-Northern Adriatic,Italy,fish
Montegibbio,10.78305853,44.51135448,Tortonian,Po Plain-Northern Adriatic,Italy,gastropods
Montegibbio,10.78305853,44.51135448,Tortonian,Po Plain-Northern Adriatic,Italy,ostracods
Montegibbio,10.78305853,44.51135448,Tortonian,Po Plain-Northern Adriatic,Italy,scaphopod_chitons_cephalopods
Montegibbio,10.78305853,44.51135448,Zanclean,Po Plain-Northern Adriatic,Italy,echinoids
Monteleone,12.26624461,44.04629126,Tortonian,Po Plain-Northern Adriatic,Italy,echinoids
Montenero,10.3460776,43.49152034,Zanclean,Western Mediterranean,Italy,bivalves
Montenero,10.3460776,43.49152034,Zanclean,Western Mediterranean,Italy,gastropods
Monteu Roero,7.938070572,44.77929388,Zanclean,Po Plain-Northern Adriatic,Italy,bivalves
Monteu Roero,7.938070572,44.77929388,Zanclean,Po Plain-Northern Adriatic,Italy,gastropods
Montezago (Emilia Romagna),9.780116227,44.83298165,Zanclean,Po Plain-Northern Adriatic,Italy,marine_mammals
Montforte (Sicily),15.38258905,38.15644456,Tortonian,Eastern Mediterranean,Italy,corals
Monti Livornesi,10.41670958,43.41663464,pre-evaporitic Messinian,Western Mediterranean,Italy,scaphopod_chitons_cephalopods
Monticino,11.48902236,43.0550631,Zanclean,Western Mediterranean,Italy,nanoplankton
Montjuic (Catalonia),2.167535983,41.3639349,Tortonian,Western Mediterranean,Spain,sharks
Montpellier,3.877258754,43.61050802,Zanclean,Western Mediterranean,France,marine_mammals
Montpellier,3.877258754,43.61050802,Zanclean,Western Mediterranean,France,sharks
Montvendre (Drome_Rhone Basin),5.021603608,44.87094303,Tortonian,Western Mediterranean,France,corals
Morocco,-3.702596318,35.11246749,pre-evaporitic Messinian,Western Mediterranean,Morocco,bryozoans
Morocco,-3.702596318,35.11246749,Tortonian,Western Mediterranean,Morocco,bryozoans
Morocco,-3.702596318,35.11246749,Tortonian,Western Mediterranean,Morocco,corals
Mouchli Lakkos,26.15352507,35.18377648,Tortonian,Eastern Mediterranean,Greece,marine_mammals
Moulay el Arbi (Boudinar Basin),-3.624265,35.148003,pre-evaporitic Messinian,Western Mediterranean,Morocco,bivalves
Moulay el Arbi (Boudinar Basin),-3.624265,35.148003,pre-evaporitic Messinian,Western Mediterranean,Morocco,planktic_foraminifera
Moulay el Arbi (Boudinar Basin),-3.624265,35.148003,Tortonian,Western Mediterranean,Morocco,bivalves
Moulay el Arbi (Boudinar Basin),-3.624265,35.148003,Tortonian,Western Mediterranean,Morocco,planktic_foraminifera
Mount Capriolo (Piedmont),11.07867457,45.5923179,Zanclean,Po Plain-Northern Adriatic,Italy,gastropods
Murcia,-1.129922428,37.99216268,pre-evaporitic Messinian,Western Mediterranean,Spain,ostracods
Murcia,-1.129922428,37.99216268,Tortonian,Western Mediterranean,Spain,echinoids
Murcia,-1.129922428,37.99216268,Tortonian,Western Mediterranean,Spain,ostracods
Murdjadjo,-0.798898418,35.68692982,pre-evaporitic Messinian,Western Mediterranean,Algeria,corals
Murdjadjo,-0.798898418,35.68692982,pre-evaporitic Messinian,Western Mediterranean,Algeria,fish
Mussotto,8.017095836,44.71436718,pre-evaporitic Messinian,Po Plain-Northern Adriatic,Italy,fish
Mussotto,8.017095836,44.71436718,pre-evaporitic Messinian,Po Plain-Northern Adriatic,Italy,ostracods
Mussotto,8.017095836,44.71436718,Tortonian,Po Plain-Northern Adriatic,Italy,ostracods
Myra-1 core (Levant),33.80946417,32.03833488,pre-evaporitic Messinian,Eastern Mediterranean,offshore,nanoplankton
Nabeul,10.7358551,36.45225585,Zanclean,Eastern Mediterranean,Tunisia,sharks
Narzole (Piedmont),7.870622402,44.59424149,pre-evaporitic Messinian,Po Plain-Northern Adriatic,Italy,benthic_foraminifera
Narzole (Piedmont),7.870622402,44.59424149,pre-evaporitic Messinian,Po Plain-Northern Adriatic,Italy,gastropods
Narzole (Piedmont),7.870622402,44.59424149,Zanclean,Po Plain-Northern Adriatic,Italy,benthic_foraminifera
Narzole (Piedmont),7.870622402,44.59424149,Zanclean,Po Plain-Northern Adriatic,Italy,nanoplankton
Narzole (Piedmont),7.870622402,44.59424149,Zanclean,Po Plain-Northern Adriatic,Italy,ostracods
Narzole (Piedmont),7.870622402,44.59424149,Zanclean,Po Plain-Northern Adriatic,Italy,planktic_foraminifera
NE Morocco,-2.544343597,34.97524468,pre-evaporitic Messinian,Western Mediterranean,Morocco,bivalves
NE Morocco,-2.544343597,34.97524468,Tortonian,Western Mediterranean,Morocco,bivalves
Nerja (Malaga),-3.87296209,36.75667284,Zanclean,Western Mediterranean,Spain,bivalves
Nesher (Haifa),35.04892276,32.76498326,Zanclean,Eastern Mediterranean,Israel,bivalves
Nicosia (Enna_Sicily),14.3954151,37.74690277,Tortonian,Eastern Mediterranean,Italy,corals
Nijar Basin,-2.206691265,36.96612096,pre-evaporitic Messinian,Western Mediterranean,Spain,benthic_foraminifera
Nijar Basin,-2.206691265,36.96612096,pre-evaporitic Messinian,Western Mediterranean,Spain,bivalves
Nijar Basin,-2.206691265,36.96612096,pre-evaporitic Messinian,Western Mediterranean,Spain,corals
Nijar Basin,-2.206691265,36.96612096,Tortonian,Western Mediterranean,Spain,corals
Nijar Basin,-2.206691265,36.96612096,Zanclean,Western Mediterranean,Spain,planktic_foraminifera
Nizza Monferrato (Asti),8.358304392,44.7741419,Zanclean,Po Plain-Northern Adriatic,Italy,marine_mammals
Nizza Monferrato (Asti),8.358304392,44.7741419,Zanclean,Po Plain-Northern Adriatic,Italy,ostracods
Nocella (Palermo),13.07365003,38.08489424,Zanclean,Eastern Mediterranean,Italy,bivalves
Nocella (Palermo),13.07365003,38.08489424,Zanclean,Eastern Mediterranean,Italy,gastropods
North Arbaa,-4.085540785,34.97262566,pre-evaporitic Messinian,Western Mediterranean,Morocco,planktic_foraminifera
North Arbaa,-4.085540785,34.97262566,Tortonian,Western Mediterranean,Morocco,planktic_foraminifera
North coast of Ibiza,1.518771094,39.1117678,Tortonian,Western Mediterranean,Spain,corals
North of Souk el Khemis (Beni Ouarsous),-1.616755659,35.13816395,pre-evaporitic Messinian,Western Mediterranean,Algeria,corals
Northern Italy,9.263573548,45.59523877,Tortonian,Po Plain-Northern Adriatic,Italy,corals
Northern Italy,9.263573548,45.59523877,Tortonian,Po Plain-Northern Adriatic,Italy,fish
Northern Italy,9.263573548,45.59523877,Tortonian,Po Plain-Northern Adriatic,Italy,sharks
Northern Italy,9.263573548,45.59523877,Zanclean,Po Plain-Northern Adriatic,Italy,corals
Nugola,10.44411323,43.5794868,pre-evaporitic Messinian,Western Mediterranean,Italy,fish
Ofaqim & Pattish Fort,34.63778853,31.30830578,pre-evaporitic Messinian,Eastern Mediterranean,Israel,corals
Oran,-0.635047412,35.69997105,pre-evaporitic Messinian,Western Mediterranean,Algeria,corals
Oran,-0.635047412,35.69997105,pre-evaporitic Messinian,Western Mediterranean,Algeria,echinoids
Oran,-0.635047412,35.69997105,pre-evaporitic Messinian,Western Mediterranean,Algeria,marine_mammals
Orciano (Pisa),10.51035699,43.494502,Zanclean,Western Mediterranean,Italy,gastropods
Orciano (Pisa),10.51035699,43.494502,Zanclean,Western Mediterranean,Italy,marine_mammals
Ortabag (Susuz Dag_Kasaba Basin),29.78703533,36.43219345,Tortonian,Eastern Mediterranean,Turkey,corals
Ortatepe,28.77281181,37.3789525,Zanclean,Eastern Mediterranean,Turkey,planktic_foraminifera
Otranto Pietra Leccese,18.48523423,40.14444291,Tortonian,Eastern Mediterranean,Italy,marine_mammals
Otrusevac (Samobora),15.49181844,45.74811944,Tortonian,Po Plain-Northern Adriatic,Croatia,marine_mammals
Ouarsenis (Pont du Caid_Chelif Basin),1.616675075,35.86667079,Tortonian,Western Mediterranean,Algeria,corals
Oued Akrech (Rabat),-5.703039488,35.55317662,Tortonian,Western Mediterranean,Morocco,corals
Oued Bou Regreg (Rabat),-5.593176211,35.06906287,Tortonian,Western Mediterranean,Morocco,corals
Oued Derdoussa,0.324726999,36.01851358,Zanclean,Western Mediterranean,Algeria,planktic_foraminifera
Oued Hamouziine (Taza_Guercif Basin),-3.390569685,34.21179839,Tortonian,Western Mediterranean,Morocco,corals
Oued Kell (Sais Basin),-4.767015332,34.01088561,pre-evaporitic Messinian,Western Mediterranean,Morocco,corals
Oued Kell (Sais Basin),-4.767015332,34.01088561,Tortonian,Western Mediterranean,Morocco,bivalves
Oued Madhouma (Sais Basin),-4.931810247,33.83767814,Tortonian,Western Mediterranean,Morocco,bivalves
Oued Medouar (Melilla),-2.971305977,35.29622873,pre-evaporitic Messinian,Western Mediterranean,Morocco,bivalves
Oued Sidi Medioni (SE Cap Figalo),-1.191841023,35.56768226,pre-evaporitic Messinian,Western Mediterranean,Algeria,corals
Oued Sidi Messaoud (Kebdana North),6.426744789,36.48110419,Tortonian,Western Mediterranean,Morocco,corals
Oued Trifa (Boudinar Basin),-3.701019,35.107552,pre-evaporitic Messinian,Western Mediterranean,Morocco,bivalves
Oued Trifa (Boudinar Basin),-3.701019,35.107552,Zanclean,Western Mediterranean,Morocco,bivalves
Oued Zitoune (Sais Basin),9.380306104,37.0494113,Tortonian,Western Mediterranean,Morocco,bivalves
Oujda,-1.899925569,34.68329507,pre-evaporitic Messinian,Western Mediterranean,Morocco,corals
Ouled Ben Adda Plateau (Ain Temouchent),-1.171512895,35.28704925,pre-evaporitic Messinian,Western Mediterranean,Algeria,corals
Ouled Sidi Bou Azza (Ain Temouchent),-1.168766313,35.27864151,pre-evaporitic Messinian,Western Mediterranean,Algeria,corals
P. Maiata (Sicily),13.4815676,37.28733999,Zanclean,Eastern Mediterranean,Italy,dinocysts
Pachiammos (Crete),25.80499559,35.10944313,Zanclean,Eastern Mediterranean,Greece,planktic_foraminifera
Pachino (Sicily),15.09128865,36.71531833,Tortonian,Eastern Mediterranean,Italy,marine_mammals
Padron (Malaga),-5.129684206,36.45830087,Zanclean,Western Mediterranean,Spain,bivalves
Padron (Malaga),-5.129684206,36.45830087,Zanclean,Western Mediterranean,Spain,gastropods
Palermo (Sicily),13.3651828,38.11567648,pre-evaporitic Messinian,Eastern Mediterranean,Italy,corals
Palermo (Sicily),13.3651828,38.11567648,Tortonian,Eastern Mediterranean,Italy,corals
Palmi (Reggio_Calabria),15.84641482,38.35775129,pre-evaporitic Messinian,Eastern Mediterranean,Italy,corals
Palmi (Reggio_Calabria),15.84641482,38.35775129,Tortonian,Eastern Mediterranean,Italy,corals
Panagia (Gavdos),24.10085106,34.83999298,Tortonian,Eastern Mediterranean,Greece,corals
Panasos (Crete),25.046389,35.198056,pre-evaporitic Messinian,Eastern Mediterranean,Greece,nanoplankton
Panasos (Crete),25.046389,35.198056,Tortonian,Eastern Mediterranean,Greece,bivalves
Panasos (Crete),25.046389,35.198056,Tortonian,Eastern Mediterranean,Greece,corals
Panasos (Crete),25.046389,35.198056,Tortonian,Eastern Mediterranean,Greece,gastropods
Panasos (Crete),25.046389,35.198056,Tortonian,Eastern Mediterranean,Greece,marine_mammals
Panasos (Crete),25.046389,35.198056,Tortonian,Eastern Mediterranean,Greece,nanoplankton
Panasos 2 (Crete),24.98111756,35.13078962,Tortonian,Eastern Mediterranean,Greece,marine_mammals
Pantano (Modena),10.51410161,44.47106378,Tortonian,Po Plain-Northern Adriatic,Italy,corals
Papaglionti (Vibo Valentia_Calabria),16.01609207,38.6433578,Tortonian,Eastern Mediterranean,Italy,marine_mammals
Papiol (Catalonia),2.010166787,41.43820197,Zanclean,Western Mediterranean,Spain,fish
Parma,10.32762828,44.80158958,Tortonian,Po Plain-Northern Adriatic,Italy,corals
Parma,10.32762828,44.80158958,Tortonian,Po Plain-Northern Adriatic,Italy,scaphopod_chitons_cephalopods
Parque Antena (Estepona_Malaga),-5.063045002,36.45500149,Zanclean,Western Mediterranean,Spain,bivalves
Parque Antena (Estepona_Malaga),-5.063045002,36.45500149,Zanclean,Western Mediterranean,Spain,gastropods
Partira (Crete),25.22566567,35.11832392,Tortonian,Eastern Mediterranean,Greece,gastropods
Patella (Crete),24.92181331,35.20074063,Tortonian,Eastern Mediterranean,Greece,gastropods
Patella (Crete),24.92181331,35.20074063,Tortonian,Eastern Mediterranean,Greece,scaphopod_chitons_cephalopods
Pavigliana (Calabria),15.72116147,38.10790137,Zanclean,Eastern Mediterranean,Italy,bivalves
Pecetto di Valenza,8.670371587,44.98850621,pre-evaporitic Messinian,Po Plain-Northern Adriatic,Italy,fish
Penon de Almayate,4.118611,36.719444,Zanclean,Western Mediterranean,Spain,ostracods
Perales (Sorbas Basin),-2.050799878,37.09203227,pre-evaporitic Messinian,Western Mediterranean,Spain,nanoplankton
Perales (Sorbas Basin),-2.050799878,37.09203227,pre-evaporitic Messinian,Western Mediterranean,Spain,planktic_foraminifera
Pesio (Cuneo),7.888859969,44.46670234,pre-evaporitic Messinian,Po Plain-Northern Adriatic,Italy,gastropods
Pesio (Cuneo),7.888859969,44.46670234,Zanclean,Po Plain-Northern Adriatic,Italy,gastropods
Petralia (Caltanisetta Basin_Sicily),14.099897,37.794697,pre-evaporitic Messinian,Eastern Mediterranean,Italy,corals
Piacenza,9.69263877,45.05231798,Zanclean,Po Plain-Northern Adriatic,Italy,sharks
Piedmont,7.689316387,45.12504219,Tortonian,Po Plain-Northern Adriatic,Italy,scaphopod_chitons_cephalopods
Piedmont,7.689316387,45.12504219,Zanclean,Po Plain-Northern Adriatic,Italy,scaphopod_chitons_cephalopods
Pietra di Bismantova (Castelnuovo dei Monti),10.41370388,44.42142801,Tortonian,Po Plain-Northern Adriatic,Italy,corals
Pietrasecca,13.12478405,42.13475407,pre-evaporitic Messinian,Western Mediterranean,Italy,planktic_foraminifera
Pietrasecca,13.12478405,42.13475407,Tortonian,Western Mediterranean,Italy,planktic_foraminifera
Pino d'Asti (Piedmont),7.985561252,45.05858712,Zanclean,Po Plain-Northern Adriatic,Italy,ostracods
Pisa,10.4013858,43.72287509,Zanclean,Western Mediterranean,Italy,sharks
Piskopiano (Crete),25.383056,35.333611,pre-evaporitic Messinian,Eastern Mediterranean,Greece,nanoplankton
Piskopiano (Crete),25.383056,35.333611,Tortonian,Eastern Mediterranean,Greece,nanoplankton
Piskopiano (Crete),25.383056,35.333611,Zanclean,Eastern Mediterranean,Greece,nanoplankton
Pissavacca (Valsugana),12.369778,45.747183,Tortonian,Po Plain-Northern Adriatic,Italy,bivalves
Pissavacca (Valsugana),12.369778,45.747183,Tortonian,Po Plain-Northern Adriatic,Italy,gastropods
Pissouri,32.667222,34.669167,pre-evaporitic Messinian,Eastern Mediterranean,Cyprus,benthic_foraminifera
Pissouri,32.667222,34.669167,pre-evaporitic Messinian,Eastern Mediterranean,Cyprus,bivalves
Pissouri,32.667222,34.669167,pre-evaporitic Messinian,Eastern Mediterranean,Cyprus,fish
Pissouri,32.667222,34.669167,pre-evaporitic Messinian,Eastern Mediterranean,Cyprus,gastropods
Pissouri,32.667222,34.669167,pre-evaporitic Messinian,Eastern Mediterranean,Cyprus,nanoplankton
Pissouri,32.667222,34.669167,pre-evaporitic Messinian,Eastern Mediterranean,Cyprus,planktic_foraminifera
Pissouri,32.667222,34.669167,Tortonian,Eastern Mediterranean,Cyprus,benthic_foraminifera
Pissouri,32.667222,34.669167,Tortonian,Eastern Mediterranean,Cyprus,bivalves
Pissouri,32.667222,34.669167,Tortonian,Eastern Mediterranean,Cyprus,gastropods
Pissouri,32.667222,34.669167,Tortonian,Eastern Mediterranean,Cyprus,nanoplankton
Pissouri,32.667222,34.669167,Tortonian,Eastern Mediterranean,Cyprus,planktic_foraminifera
Pissouri,32.667222,34.669167,Zanclean,Eastern Mediterranean,Cyprus,planktic_foraminifera
Pitsidia (Crete),24.78001373,35.01596753,Tortonian,Eastern Mediterranean,Greece,bivalves
Plakiotissa (Crete),25.15336194,35.06191205,Tortonian,Eastern Mediterranean,Greece,bivalves
Plakiotissa (Crete),25.15336194,35.06191205,Tortonian,Eastern Mediterranean,Greece,gastropods
Plananzia (Sardinia),8.952481501,39.93903938,Tortonian,Western Mediterranean,Italy,corals
Podere delle Vopaie (Tuscany),11.38031748,43.51611935,Zanclean,Western Mediterranean,Italy,marine_mammals
Podere Lucciolabella (Tuscany),11.755833,43.034333,Zanclean,Western Mediterranean,Italy,marine_mammals
Poggio alle Mura (Siena),11.39775778,42.97954472,Zanclean,Western Mediterranean,Italy,bivalves
Poggio alle Mura (Siena),11.39775778,42.97954472,Zanclean,Western Mediterranean,Italy,gastropods
Polis,32.42540528,35.03565792,Zanclean,Eastern Mediterranean,Cyprus,fish
Pollenzo (Piedmont),7.895768213,44.68676449,pre-evaporitic Messinian,Po Plain-Northern Adriatic,Italy,nanoplankton
Pollenzo (Piedmont),7.895768213,44.68676449,pre-evaporitic Messinian,Po Plain-Northern Adriatic,Italy,planktic_foraminifera
Ponsano (Tuscany),10.98500997,43.36153132,Tortonian,Western Mediterranean,Italy,bivalves
Ponsano (Tuscany),10.98500997,43.36153132,Tortonian,Western Mediterranean,Italy,marine_mammals
Ponsano (Tuscany),10.98500997,43.36153132,Tortonian,Western Mediterranean,Italy,sharks
Pont de Saboune (Sebaa Chioukh),-1.35860548,35.15620669,pre-evaporitic Messinian,Western Mediterranean,Algeria,corals
Ponte Ginori,10.74371117,43.33526643,pre-evaporitic Messinian,Western Mediterranean,Italy,ostracods
Ponte Ginori,10.74371117,43.33526643,Zanclean,Western Mediterranean,Italy,ostracods
Popogna (Livorno),10.33429253,43.52323138,pre-evaporitic Messinian,Western Mediterranean,Italy,bivalves
Popogna (Livorno),10.33429253,43.52323138,pre-evaporitic Messinian,Western Mediterranean,Italy,corals
Popogna (Livorno),10.33429253,43.52323138,pre-evaporitic Messinian,Western Mediterranean,Italy,gastropods
Popogna (Livorno),10.33429253,43.52323138,Tortonian,Western Mediterranean,Italy,corals
Portacomaro d'Asti (Sabbie d'Asti_Piedmont),8.251464549,44.95694725,Zanclean,Po Plain-Northern Adriatic,Italy,marine_mammals
Portinatx (Ibiza),1.518474482,39.11050882,Tortonian,Western Mediterranean,Spain,corals
Portinaty (Ibiza),1.520448548,39.1102423,Tortonian,Western Mediterranean,Spain,corals
Potamida (Crete),24.6988,35.471828,pre-evaporitic Messinian,Eastern Mediterranean,Greece,bivalves
Potamida (Crete),24.6988,35.471828,pre-evaporitic Messinian,Eastern Mediterranean,Greece,fish
Potamida (Crete),24.6988,35.471828,pre-evaporitic Messinian,Eastern Mediterranean,Greece,ostracods
Potamida (Crete),24.6988,35.471828,pre-evaporitic Messinian,Eastern Mediterranean,Greece,planktic_foraminifera
Potamida (Crete),24.6988,35.471828,Tortonian,Eastern Mediterranean,Greece,bivalves
Potamida (Crete),24.6988,35.471828,Tortonian,Eastern Mediterranean,Greece,fish
Potamida (Crete),24.6988,35.471828,Tortonian,Eastern Mediterranean,Greece,ostracods
Potamida (Crete),24.6988,35.471828,Tortonian,Eastern Mediterranean,Greece,planktic_foraminifera
Potamida (Crete),24.6988,35.471828,Tortonian,Eastern Mediterranean,Greece,sharks
Potamos (Gavdos),24.0633173,34.85954221,Tortonian,Eastern Mediterranean,Greece,planktic_foraminifera
Priocca (Piedmont),8.062588953,44.78559439,Zanclean,Po Plain-Northern Adriatic,Italy,gastropods
Profitis Ilias (Crete),25.10111278,35.20709923,pre-evaporitic Messinian,Eastern Mediterranean,Greece,ostracods
Profitis Ilias (Crete),25.10111278,35.20709923,Tortonian,Eastern Mediterranean,Greece,gastropods
Psalida (Crete),24.95461517,35.0904734,Tortonian,Eastern Mediterranean,Greece,bivalves
Psalida (Crete),24.95461517,35.0904734,Tortonian,Eastern Mediterranean,Greece,corals
Psalida (Crete),24.95461517,35.0904734,Tortonian,Eastern Mediterranean,Greece,gastropods
Psalida (Crete),24.95461517,35.0904734,Tortonian,Eastern Mediterranean,Greece,marine_mammals
Puerto Lobo (Granada Basin),-3.533049073,37.23745134,Tortonian,Western Mediterranean,Spain,corals
Pugna (Tuscany),11.36910746,43.30677903,Zanclean,Western Mediterranean,Italy,marine_mammals
Purchena,-2.360344132,37.34726895,Tortonian,Western Mediterranean,Spain,corals
Puyricard (Bouches du Rhone),5.369751869,43.59570236,Tortonian,Western Mediterranean,France,corals
Quantara 1 well (Nile delta),30.25679823,30.8741223,pre-evaporitic Messinian,Eastern Mediterranean,Egypt,dinocysts
Quantara 1 well (Nile delta),30.25679823,30.8741223,Tortonian,Eastern Mediterranean,Egypt,dinocysts
Quantara 1 well (Nile delta),30.25679823,30.8741223,Zanclean,Eastern Mediterranean,Egypt,dinocysts
Quarata (Livorno),11.83005052,43.49765664,pre-evaporitic Messinian,Western Mediterranean,Italy,bivalves
Quarata (Livorno),11.83005052,43.49765664,pre-evaporitic Messinian,Western Mediterranean,Italy,gastropods
Quarata (Livorno),11.83005052,43.49765664,Tortonian,Western Mediterranean,Italy,bivalves
Quarata (Livorno),11.83005052,43.49765664,Tortonian,Western Mediterranean,Italy,corals
Quarata (Livorno),11.83005052,43.49765664,Tortonian,Western Mediterranean,Italy,gastropods
Quercecchi (Grosseto_Tuscany),11.00979628,43.46055634,Zanclean,Western Mediterranean,Italy,bivalves
Quercecchi (Grosseto_Tuscany),11.00979628,43.46055634,Zanclean,Western Mediterranean,Italy,gastropods
Racalmuto (Sicily),13.73252966,37.40901697,pre-evaporitic Messinian,Eastern Mediterranean,Italy,fish
Ragusa,14.72522245,36.92677913,pre-evaporitic Messinian,Eastern Mediterranean,Italy,ostracods
Ragusa,14.72522245,36.92677913,Tortonian,Eastern Mediterranean,Italy,ostracods
Ras El Barr-1 well (Nile delta),31.85,31.666667,Zanclean,Eastern Mediterranean,Egypt,nanoplankton
Ravin de la Vierge (Lower Chelif Basin),0.16028,36.009793,pre-evaporitic Messinian,Western Mediterranean,Algeria,bivalves
Raz Al Ain (Chelif Basin),0.149808967,36.01465265,pre-evaporitic Messinian,Western Mediterranean,Algeria,fish
Reggio Calabre,15.64751123,38.11053468,Tortonian,Eastern Mediterranean,Italy,corals
Reggio Emilia,10.63036982,44.69916778,Zanclean,Po Plain-Northern Adriatic,Italy,sharks
Resuttano,14.02998479,37.67657218,pre-evaporitic Messinian,Eastern Mediterranean,Italy,corals
Resuttano,14.02998479,37.67657218,pre-evaporitic Messinian,Eastern Mediterranean,Italy,ostracods
Rhafnas (North Fes),-4.967519097,34.3714646,Tortonian,Western Mediterranean,Morocco,corals
Rhone Basin,5.693148308,45.62487538,Tortonian,Western Mediterranean,Italy,corals
Rhone Basin,5.693148308,45.62487538,Tortonian,Western Mediterranean,Italy,echinoids
Ribat Al Khayr (Meknes),-4.404917,33.807642,pre-evaporitic Messinian,Western Mediterranean,Morocco,corals
Riera du Bonet,2.028737773,41.40418839,Zanclean,Western Mediterranean,Spain,marine_mammals
Rio Chicamo,-0.991589634,38.26460897,Tortonian,Western Mediterranean,Italy,planktic_foraminifera
Rio di Bocca d'Asino (Piedmont),7.626405,44.596469,Tortonian,Po Plain-Northern Adriatic,Italy,gastropods
Rio di Bocca d'Asino (Piedmont),7.626405,44.596469,Tortonian,Po Plain-Northern Adriatic,Italy,scaphopod_chitons_cephalopods
Rio Guadalminar,5.017222,36.47,Zanclean,Western Mediterranean,Spain,ostracods
Rio Mazzapiedi,7.685008029,45.01914726,pre-evaporitic Messinian,Po Plain-Northern Adriatic,Italy,ostracods
Rio Mazzapiedi,7.685008029,45.01914726,Tortonian,Po Plain-Northern Adriatic,Italy,ostracods
Rio Torsero (Savona),8.210884598,44.09262207,Zanclean,Western Mediterranean,Italy,fish
Rio Torsero (Savona),8.210884598,44.09262207,Zanclean,Western Mediterranean,Italy,gastropods
Rio Torsero (Savona),8.210884598,44.09262207,Zanclean,Western Mediterranean,Italy,marine_mammals
Rio Torsero (Savona),8.210884598,44.09262207,Zanclean,Western Mediterranean,Italy,ostracods
Riosto Bologna,11.3582212,44.37826274,Zanclean,Po Plain-Northern Adriatic,Italy,marine_mammals
Roaix (Buisson_Rhone delta),5.01323836,44.24470012,Tortonian,Western Mediterranean,France,ostracods
Rocca Limata (Sicily),13.93572933,37.10439892,Tortonian,Eastern Mediterranean,Italy,corals
Roccello Jonica-Capo Spartivento,8.845711079,38.87817139,Zanclean,Western Mediterranean,Italy,benthic_foraminifera
Roddi,7.973135837,44.67917291,pre-evaporitic Messinian,Po Plain-Northern Adriatic,Italy,fish
Rombiolo (Vibo Valentia),16.00324792,38.59734365,Tortonian,Eastern Mediterranean,Italy,marine_mammals
Rome,12.50234407,41.90487579,Zanclean,Western Mediterranean,Italy,echinoids
Rometta (Sicily),15.4143163,38.17128354,pre-evaporitic Messinian,Eastern Mediterranean,Italy,corals
Rometta (Sicily),15.4143163,38.17128354,Tortonian,Eastern Mediterranean,Italy,corals
Rosignano (Livorno),10.47218439,43.40919662,pre-evaporitic Messinian,Western Mediterranean,Italy,corals
Rosignano (Livorno),10.47218439,43.40919662,Tortonian,Western Mediterranean,Italy,corals
Rosselo composite section (Sicily),13.20846148,38.12951759,Zanclean,Eastern Mediterranean,Italy,dinocysts
Ruffolo Val di Pugna (Siena),11.36915158,43.30691563,Zanclean,Western Mediterranean,Italy,marine_mammals
S. Ninfa (Sicily),12.8781458,37.77190572,Tortonian,Eastern Mediterranean,Italy,dinocysts
Sahabi,14.93226572,32.02028268,pre-evaporitic Messinian,Eastern Mediterranean,Libya,marine_mammals
